$IIGLL,4734.230,N,00322.330,W,,A,A*44
$IIHDG,174.0,,,,*4B
$IIHDM,174.0,M*20
$IIRMB,A,1.61,L,,BV1,,,,,6.07,149.5,,,A*14
$IIRSA,4,A,,V*63
$IIMWV,029.5,R,12.1,N,A*01
$IIMWV,052.5,T,7.5,N,A*3B
$IIVHW,,T,178.5,M,5.97,N,11.06,K*4D
$IIVPW,0.21,N,0.11,M*51
$IIVWR,056.0,R,11.2,N,5.8,M,20.7,K*40
$IIVWT,088.0,R,9.2,N,4.7,M,17.0,K*71
$IIRSA,-1,A,,V*4B
$IIRSA,-4,A,,V*4E
$IIMTW,19.0,C*1B
$IIZTG,,010247,BV1*40
$IIHSC,,T,177.0,M*6E
$IIMWD,,T,230.0,M,6.9,N,3.6,M*61
$IIVLW,4930.0,N,9.04,N*4E
$IIVTG,175.0,T,,M,5.9,N,10.9,K*40
$IIXTE,A,A,1.61,L,N,A*12
$IIAPB,A,A,1.61,L,N,,,,,BV1,149.5,T,,,A*72
$IIBWC,,,,,,149.5,T,,M,6.07,N,BV1*1C
$IIDBT,90.8,f,27.68,M,15.13,F*2D
$IIGLL,4734.220,N,00322.330,W,,A,A*45
$IIHDG,179.0,,,,*46
$IIHDM,179.0,M*2D
$IIRMB,A,1.61,L,,BV1,,,,,6.06,149.5,,,A*15
$IIRSA,-3,A,,V*49
$IIMWV,045.0,R,11.8,N,A*04
$IIMWV,073.0,T,8.7,N,A*30
$IIVHW,,T,177.0,M,5.75,N,10.65,K*4F
$IIVPW,1.68,N,0.87,M*52
$IIVWR,045.5,R,11.4,N,5.9,M,21.1,K*47
$IIVWT,076.0,R,8.3,N,4.3,M,15.4,K*72
$IIRSA,-1,A,,V*4B
$IIAPB,A,A,1.61,L,N,,,,,BV1,149.5,T,,,A*72
$IIBWC,,,,,,149.5,T,,M,6.06,N,BV1*1D
$IIDBT,85.3,f,26.01,M,14.21,F*2C
$IIGLL,4734.220,N,00322.330,W,,A,A*45
$IIHDG,174.0,,,,*4B
$IIHDM,174.0,M*20
$IIRMB,A,1.61,L,,BV1,,,,,6.06,149.5,,,A*15
$IIRSA,3,A,,V*64
$IIMWV,025.0,R,11.8,N,A*02
$IIMWV,048.0,T,6.7,N,A*36
$IIVHW,,T,174.0,M,6.22,N,11.52,K*48
$IIVPW,4.16,N,2.14,M*56
$IIVWR,025.0,R,11.8,N,6.1,M,21.9,K*4B
$IIVWT,048.0,R,6.7,N,3.5,M,12.4,K*73
$IIRSA,-2,A,,V*48
$IIRSA,-4,A,,V*4E
$IIAPB,A,A,1.61,L,N,,,,,BV1,149.5,T,,,A*72
$IIBWC,,,,,,149.5,T,,M,6.06,N,BV1*1D
$IIDBT,87.9,f,26.80,M,14.65,F*2D
$IIGLL,4734.220,N,00322.330,W,,A,A*45
$IIHDG,178.5,,,,*42
$IIHDM,178.0,M*2C
$IIRMB,A,1.61,L,,BV1,,,,,6.06,149.5,,,A*15
$IIRSA,-1,A,,V*4B
$IIMWV,043.0,R,12.2,N,A*0B
$IIMWV,069.5,T,8.8,N,A*31
$IIVHW,,T,178.0,M,5.81,N,10.76,K*49
$IIVPW,2.03,N,1.05,M*57
$IIVWR,043.0,R,12.2,N,6.3,M,22.6,K*4C
$IIVWT,069.5,R,8.8,N,4.5,M,16.3,K*70
$IIRSA,-5,A,,V*4F
$IIHSC,,T,177.0,M*6E
$IIMWD,,T,249.0,M,8.8,N,4.5,M*64
$IIVLW,4930.0,N,9.04,N*4E
$IIVTG,160.0,T,,M,5.7,N,10.6,K*45
$IIXTE,A,A,1.62,L,N,A*11
$IIAPB,A,A,1.62,L,N,,,,,BV1,149.5,T,,,A*71
$IIBWC,,,,,,149.5,T,,M,6.06,N,BV1*1D
$IIDBT,92.7,f,28.26,M,15.45,F*26
$IIGLL,4734.220,N,00322.330,W,,A,A*45
$IIHDG,176.5,,,,*4C
$IIHDM,176.5,M*27
$IIRMB,A,1.62,L,,BV1,,,,,6.06,149.5,,,A*16
$IIRSA,2,A,,V*65
$IIMWV,034.5,R,11.5,N,A*0A
$IIMWV,058.5,T,7.6,N,A*32
$IIVHW,,T,176.0,M,5.48,N,10.15,K*47
$IIVPW,2.86,N,1.47,M*5C
$IIVWR,034.5,R,11.5,N,5.9,M,21.3,K*42
$IIVWT,058.5,R,7.6,N,3.9,M,14.1,K*78
$IIRSA,-1,A,,V*4B
$IIAPB,A,A,1.62,L,N,,,,,BV1,149.5,T,,,A*71
$IIBWC,,,,,,149.5,T,,M,6.06,N,BV1*1D
$IIDBT,92.7,f,28.26,M,15.45,F*26
$IIGLL,4734.210,N,00322.320,W,,A,A*47
$IIHDG,180.0,,,,*40
$IIHDM,180.0,M*2B
$IIRMB,A,1.62,L,,BV1,,,,,6.06,149.5,,,A*16
$IIRSA,-1,A,,V*4B
$IIMWV,042.0,R,11.2,N,A*09
$IIMWV,069.0,T,8.0,N,A*3C
$IIVHW,,T,181.0,M,5.44,N,10.07,K*40
$IIVPW,1.95,N,1.01,M*5F
$IIVWR,042.0,R,11.2,N,5.8,M,20.7,K*45
$IIVWT,069.0,R,8.0,N,4.1,M,14.8,K*70
$IIRSA,-3,A,,V*49
$IIMTW,19.0,C*1B
$IIZTG,,010600,BV1*47
$IIRSA,-6,A,,V*4C
$IIHSC,,T,177.0,M*6E
$IIMWD,,T,234.0,M,8.9,N,4.6,M*6C
$IIVLW,4930.0,N,9.04,N*4E
$IIVTG,173.5,T,,M,5.5,N,10.2,K*44
$IIXTE,A,A,1.62,L,N,A*11
$IIAPB,A,A,1.62,L,N,,,,,BV1,149.5,T,,,A*71
$IIBWC,,,,,,149.5,T,,M,6.05,N,BV1*1E
$IIDBT,91.3,f,27.84,M,15.21,F*24
$IIGLL,4734.210,N,00322.320,W,,A,A*47
$IIHDG,181.0,,,,*41
$IIHDM,181.0,M*2A
$IIRMB,A,1.62,L,,BV1,,,,,6.05,149.5,,,A*15
$IIRSA,-4,A,,V*4E
$IIMWV,035.5,R,13.0,N,A*0C
$IIMWV,060.0,T,8.7,N,A*32
$IIVHW,,T,181.0,M,6.22,N,11.52,K*42
$IIVPW,3.06,N,1.58,M*5B
$IIVWR,035.5,R,12.8,N,6.6,M,23.7,K*47
$IIVWT,060.5,R,8.5,N,4.4,M,15.7,K*72
$IIRSA,-4,A,,V*4E
$IIAPB,A,A,1.62,L,N,,,,,BV1,149.5,T,,,A*71
$IIBWC,,,,,,149.5,T,,M,6.05,N,BV1*1E
$IIDBT,91.3,f,27.84,M,15.21,F*24
$IIGLL,4734.210,N,00322.320,W,,A,A*47
$IIHDG,181.0,,,,*41
$IIHDM,181.0,M*2A
$IIRMB,A,1.62,L,,BV1,,,,,6.05,149.5,,,A*15
$IIRSA,-4,A,,V*4E
$IIMWV,048.5,R,11.6,N,A*02
$IIMWV,081.5,T,8.7,N,A*38
$IIVHW,,T,179.0,M,6.37,N,11.80,K*4E
$IIVPW,0.94,N,0.48,M*53
$IIVWR,048.5,R,11.6,N,6.0,M,21.5,K*46
$IIVWT,081.5,R,8.7,N,4.5,M,16.1,K*7B
$IIRSA,1,A,,V*66
$IIAPB,A,A,1.62,L,N,,,,,BV1,149.5,T,,,A*71
$IIBWC,,,,,,149.5,T,,M,6.05,N,BV1*1E
$IIDBT,95.9,f,29.24,M,15.98,F*2C
$IIGLL,4734.200,N,00322.320,W,,A,A*46
$IIHDG,182.0,,,,*42
$IIHDM,182.0,M*29
$IIRMB,A,1.62,L,,BV1,,,,,6.05,149.5,,,A*15
$IIRSA,-4,A,,V*4E
$IIMWV,037.5,R,12.1,N,A*0E
$IIMWV,065.0,T,8.1,N,A*31
$IIVHW,,T,181.0,M,6.18,N,11.44,K*4C
$IIVPW,2.61,N,1.35,M*50
$IIVWR,037.5,R,12.1,N,6.2,M,22.4,K*4A
$IIVWT,065.0,R,8.1,N,4.2,M,15.0,K*77
$IIRSA,-4,A,,V*4E
$IIHSC,,T,177.0,M*6E
$IIMWD,,T,228.0,M,8.5,N,4.4,M*6F
$IIVLW,4930.0,N,9.04,N*4E
$IIVTG,171.5,T,,M,6.1,N,11.3,K*41
$IIXTE,A,A,1.62,L,N,A*11
$IIRSA,-3,A,,V*49
$IIAPB,A,A,1.62,L,N,,,,,BV1,149.5,T,,,A*71
$IIBWC,,,,,,149.5,T,,M,6.04,N,BV1*1F
$IIDBT,96.9,f,29.54,M,16.15,F*2E
$IIGLL,4734.200,N,00322.320,W,,A,A*46
$IIHDG,181.5,,,,*44
$IIHDM,181.5,M*2F
$IIRMB,A,1.62,L,,BV1,,,,,6.04,149.5,,,A*14
$IIRSA,-4,A,,V*4E
$IIMWV,041.5,R,11.6,N,A*0B
$IIMWV,072.0,T,8.0,N,A*36
$IIVHW,,T,179.0,M,6.14,N,11.37,K*43
$IIVPW,1.90,N,0.98,M*5B
$IIVWR,041.5,R,11.6,N,6.0,M,21.5,K*4F
$IIVWT,072.0,R,8.0,N,4.1,M,14.8,K*7A
$IIRSA,-1,A,,V*4B
$IIRSA,0,A,,V*67
$IIAPB,A,A,1.62,L,N,,,,,BV1,149.5,T,,,A*71
$IIBWC,,,,,,149.5,T,,M,6.04,N,BV1*1F
$IIDBT,98.8,f,30.12,M,16.46,F*2D
$IIGLL,4734.200,N,00322.320,W,,A,A*46
$IIHDG,180.0,,,,*40
$IIHDM,183.5,M*2D
$IIRMB,A,1.62,L,,BV1,,,,,6.04,149.5,,,A*14
$IIRSA,-5,A,,V*4F
$IIMWV,044.5,R,12.6,N,A*0D
$IIMWV,070.0,T,9.3,N,A*36
$IIVHW,,T,183.5,M,5.79,N,10.72,K*4B
$IIVPW,1.98,N,1.02,M*51
$IIVWR,044.5,R,12.6,N,6.5,M,23.3,K*48
$IIVWT,070.0,R,9.3,N,4.8,M,17.2,K*7A
$IIRSA,-8,A,,V*42
$IIRSA,-7,A,,V*4D
$IIMTW,19.0,C*1B
$IIZTG,,010024,BV1*47
$IIHSC,,T,177.0,M*6E
$IIMWD,,T,235.5,M,7.3,N,3.8,M*64
$IIVLW,4930.0,N,9.04,N*4E
$IIVTG,160.0,T,,M,6.0,N,11.1,K*47
$IIXTE,A,A,1.62,L,N,A*11
$IIRSA,-5,A,,V*4F
$IIAPB,A,A,1.62,L,N,,,,,BV1,149.5,T,,,A*71
$IIBWC,,,,,,149.5,T,,M,6.04,N,BV1*1F
$IIDBT,94.0,f,28.66,M,15.66,F*22
$IIGLL,4734.190,N,00322.320,W,,A,A*4C
$IIHDG,181.0,,,,*41
$IIHDM,181.0,M*2A
$IIRMB,A,1.62,L,,BV1,,,,,6.04,149.5,,,A*14
$IIRSA,-8,A,,V*42
$IIMWV,046.5,R,11.0,N,A*0A
$IIMWV,078.5,T,8.1,N,A*38
$IIVHW,,T,179.0,M,5.97,N,11.06,K*49
$IIVPW,1.08,N,0.56,M*58
$IIVWR,046.5,R,11.0,N,5.7,M,20.4,K*4A
$IIVWT,080.0,R,8.1,N,4.2,M,15.0,K*7C
$IIRSA,-8,A,,V*42
$IIAPB,A,A,1.62,L,N,,,,,BV1,149.5,T,,,A*71
$IIBWC,,,,,,149.5,T,,M,6.04,N,BV1*1F
$IIDBT,94.2,f,28.72,M,15.70,F*22
$IIGLL,4734.190,N,00322.320,W,,A,A*4C
$IIHDG,176.0,,,,*49
$IIHDM,176.0,M*22
$IIRMB,A,1.62,L,,BV1,,,,,6.04,149.5,,,A*14
$IIRSA,-2,A,,V*48
$IIMWV,035.5,R,12.5,N,A*08
$IIMWV,059.0,T,8.4,N,A*3B
$IIVHW,,T,179.0,M,5.87,N,10.87,K*40
$IIVPW,3.02,N,1.56,M*51
$IIVWR,035.5,R,12.5,N,6.4,M,23.1,K*4E
$IIVWT,074.0,R,9.5,N,4.9,M,17.6,K*7D
$IIRSA,-4,A,,V*4E
$IIRSA,-1,A,,V*4B
$IIAPB,A,A,1.62,L,N,,,,,BV1,149.5,T,,,A*71
$IIBWC,,,,,,149.5,T,,M,6.03,N,BV1*18
$IIDBT,101.1,f,30.82,M,16.85,F*13
$IIGLL,4734.180,N,00322.320,W,,A,A*4D
$IIHDG,178.0,,,,*47
$IIHDM,178.0,M*2C
$IIRMB,A,1.62,L,,BV1,,,,,6.03,149.5,,,A*13
$IIRSA,-6,A,,V*4C
$IIMWV,031.0,R,13.3,N,A*0E
$IIMWV,051.5,T,8.7,N,A*35
$IIVHW,,T,179.5,M,5.96,N,11.04,K*4F
$IIVPW,3.71,N,1.91,M*5E
$IIVWR,052.0,R,13.3,N,6.9,M,24.6,K*40
$IIVWT,085.0,R,8.6,N,4.4,M,15.9,K*71
$IIRSA,-6,A,,V*4C
$IIHSC,,T,177.0,M*6E
$IIMWD,,T,263.0,M,8.6,N,4.4,M*63
$IIVLW,4930.0,N,9.04,N*4E
$IIVTG,180.0,T,,M,6.1,N,11.3,K*4A
$IIXTE,A,A,1.62,L,N,A*11
$IIRSA,-3,A,,V*49
$IIAPB,A,A,1.62,L,N,,,,,BV1,149.5,T,,,A*71
$IIBWC,,,,,,149.5,T,,M,6.03,N,BV1*18
$IIDBT,100.5,f,30.64,M,16.75,F*11
$IIGLL,4734.180,N,00322.320,W,,A,A*4D
$IIHDG,179.0,,,,*46
$IIHDM,179.0,M*2D
$IIRMB,A,1.62,L,,BV1,,,,,6.03,149.5,,,A*13
$IIRSA,-3,A,,V*49
$IIMWV,034.5,R,12.5,N,A*09
$IIMWV,060.0,T,8.1,N,A*34
$IIVHW,,T,179.0,M,6.22,N,11.52,K*45
$IIVPW,3.11,N,1.60,M*56
$IIVWR,032.5,R,11.9,N,6.1,M,22.0,K*43
$IIVWT,059.0,R,7.4,N,3.8,M,13.7,K*7E
$IIRSA,-3,A,,V*49
$IIRSA,-5,A,,V*4F
$IIAPB,A,A,1.62,L,N,,,,,BV1,149.5,T,,,A*71
$IIBWC,,,,,,149.5,T,,M,6.03,N,BV1*18
$IIDBT,100.3,f,30.58,M,16.71,F*1C
$IIGLL,4734.180,N,00322.320,W,,A,A*4D
$IIHDG,176.0,,,,*49
$IIHDM,176.0,M*22
$IIRMB,A,1.62,L,,BV1,,,,,6.03,149.5,,,A*13
$IIRSA,-5,A,,V*4F
$IIMWV,056.0,R,10.7,N,A*08
$IIMWV,090.5,T,8.8,N,A*37
$IIVHW,,T,175.0,M,6.09,N,11.28,K*4D
$IIVPW,1.16,N,0.60,M*52
$IIVWR,045.0,R,10.9,N,5.6,M,20.2,K*43
$IIVWT,078.5,R,7.8,N,4.0,M,14.4,K*7F
$IIRSA,0,A,,V*67
$IIRSA,-4,A,,V*4E
$IIMTW,19.0,C*1B
$IIZTG,,010012,BV1*42
$IIHSC,,T,177.0,M*6E
$IIMWD,,T,250.0,M,7.7,N,4.0,M*69
$IIVLW,4930.0,N,9.04,N*4E
$IIVTG,175.0,T,,M,6.0,N,11.1,K*43
$IIXTE,A,A,1.62,L,N,A*11
$IIAPB,A,A,1.62,L,N,,,,,BV1,149.5,T,,,A*71
$IIBWC,,,,,,149.5,T,,M,6.02,N,BV1*19
$IIDBT,102.2,f,31.16,M,17.03,F*10
$IIGLL,4734.170,N,00322.320,W,,A,A*42
$IIHDG,175.5,,,,*4F
$IIHDM,175.5,M*24
$IIRMB,A,1.62,L,,BV1,,,,,6.02,149.5,,,A*12
$IIRSA,-6,A,,V*4C
$IIMWV,029.5,R,10.2,N,A*00
$IIMWV,061.0,T,5.7,N,A*3E
$IIVHW,,T,173.0,M,6.12,N,11.33,K*4B
$IIVPW,3.06,N,1.58,M*5B
$IIVWR,029.5,R,10.2,N,5.3,M,18.9,K*42
$IIVWT,057.5,R,5.9,N,3.0,M,10.9,K*7F
$IIRSA,1,A,,V*66
$IIAPB,A,A,1.63,L,N,,,,,BV1,149.5,T,,,A*70
$IIBWC,,,,,,149.5,T,,M,6.02,N,BV1*19
$IIDBT,102.2,f,31.16,M,17.03,F*10
$IIGLL,4734.170,N,00322.320,W,,A,A*42
$IIHDG,180.0,,,,*40
$IIHDM,180.0,M*2B
$IIRMB,A,1.63,L,,BV1,,,,,6.02,149.5,,,A*13
$IIRSA,-4,A,,V*4E
$IIMWV,048.5,R,12.0,N,A*07
$IIMWV,077.5,T,9.2,N,A*35
$IIVHW,,T,180.0,M,5.96,N,11.04,K*4C
$IIVPW,0.10,N,0.05,M*56
$IIVWR,054.5,R,10.5,N,5.4,M,19.4,K*44
$IIVWT,089.0,R,8.5,N,4.4,M,15.7,K*70
$IIRSA,-4,A,,V*4E
$IIRSA,-2,A,,V*48
$IIAPB,A,A,1.63,L,N,,,,,BV1,149.5,T,,,A*70
$IIBWC,,,,,,149.5,T,,M,6.02,N,BV1*19
$IIDBT,101.3,f,30.88,M,16.88,F*16
$IIGLL,4734.170,N,00322.320,W,,A,A*42
$IIHDG,178.5,,,,*42
$IIHDM,178.0,M*2C
$IIRMB,A,1.63,L,,BV1,,,,,6.02,149.5,,,A*13
$IIRSA,-4,A,,V*4E
$IIMWV,041.5,R,11.2,N,A*0F
$IIMWV,073.5,T,7.7,N,A*3A
$IIVHW,,T,178.0,M,6.18,N,11.44,K*4A
$IIVPW,2.56,N,1.32,M*53
$IIVWR,035.5,R,11.3,N,5.8,M,20.9,K*4F
$IIVWT,065.5,R,7.2,N,3.7,M,13.3,K*79
$IIRSA,-4,A,,V*4E
$IIHSC,,T,177.0,M*6E
$IIMWD,,T,243.5,M,7.2,N,3.7,M*6B
$IIVLW,4930.0,N,9.04,N*4E
$IIVTG,182.5,T,,M,6.0,N,11.1,K*4E
$IIXTE,A,A,1.63,L,N,A*10
$IIAPB,A,A,1.63,L,N,,,,,BV1,149.5,T,,,A*70
$IIBWC,,,,,,149.5,T,,M,6.02,N,BV1*19
$IIDBT,101.9,f,31.07,M,16.98,F*1B
$IIGLL,4734.170,N,00322.320,W,,A,A*42
$IIHDG,177.5,,,,*4D
$IIHDM,177.5,M*26
$IIRMB,A,1.63,L,,BV1,,,,,6.02,149.5,,,A*13
$IIRSA,-1,A,,V*4B
$IIMWV,049.5,R,10.8,N,A*0C
$IIMWV,089.5,T,9.2,N,A*34
$IIVHW,,T,180.0,M,6.23,N,11.54,K*44
$IIVPW,0.05,N,0.03,M*54
$IIVWR,055.5,R,11.2,N,5.8,M,20.7,K*46
$IIVWT,089.5,R,9.2,N,4.7,M,17.0,K*75
$IIRSA,-4,A,,V*4E
$IIAPB,A,A,1.63,L,N,,,,,BV1,149.5,T,,,A*70
$IIBWC,,,,,,149.5,T,,M,6.01,N,BV1*1A
$IIDBT,102.4,f,31.22,M,17.06,F*14
$IIGLL,4734.160,N,00322.320,W,,A,A*43
$IIHDG,182.0,,,,*42
$IIHDM,182.0,M*29
$IIRMB,A,1.63,L,,BV1,,,,,6.01,149.5,,,A*10
$IIRSA,-6,A,,V*4C
$IIMWV,029.5,R,13.0,N,A*01
$IIMWV,051.5,T,8.1,N,A*33
$IIVHW,,T,182.0,M,5.97,N,11.06,K*4D
$IIVPW,3.84,N,1.98,M*5D
$IIVWR,029.5,R,13.0,N,6.7,M,24.1,K*43
$IIVWT,050.0,R,8.3,N,4.3,M,15.4,K*76
$IIRSA,-6,A,,V*4C
$IIMTW,19.0,C*1B
$IIZTG,,010006,BV1*47
$IIRSA,-1,A,,V*4B
$IIHSC,,T,177.0,M*6E
$IIMWD,,T,262.0,M,8.2,N,4.2,M*60
$IIVTG,173.5,T,,M,6.0,N,11.1,K*40
$IIXTE,A,A,1.63,L,N,A*10
$IIAPB,A,A,1.63,L,N,,,,,BV1,149.5,T,,,A*70
$IIBWC,,,,,,149.5,T,,M,6.01,N,BV1*1A
$IIDBT,102.1,f,31.13,M,17.01,F*14
$IIGLL,4734.160,N,00322.320,W,,A,A*43
$IIHDG,176.0,,,,*49
$IIHDM,176.0,M*22
$IIRMB,A,1.63,L,,BV1,,,,,6.01,149.5,,,A*10
$IIRSA,-1,A,,V*4B
$IIMWV,051.5,R,10.7,N,A*0A
$IIMWV,084.5,T,8.4,N,A*3E
$IIVHW,,T,176.0,M,5.83,N,10.80,K*4C
$IIVPW,0.56,N,0.29,M*5A
$IIVWR,040.5,R,11.4,N,5.9,M,21.1,K*42
$IIVWT,069.0,R,7.9,N,4.1,M,14.6,K*78
$IIRSA,-4,A,,V*4E
$IIAPB,A,A,1.63,L,N,,,,,BV1,149.5,T,,,A*70
$IIBWC,,,,,,149.5,T,,M,6.01,N,BV1*1A
$IIDBT,101.4,f,30.91,M,16.90,F*10
$IIGLL,4734.160,N,00322.320,W,,A,A*43
$IIHDG,178.0,,,,*47
$IIHDM,178.0,M*2C
$IIRMB,A,1.63,L,,BV1,,,,,6.01,149.5,,,A*10
$IIRSA,-5,A,,V*4F
$IIMWV,045.0,R,11.9,N,A*05
$IIMWV,075.0,T,8.7,N,A*36
$IIVHW,,T,177.0,M,6.13,N,11.35,K*48
$IIVPW,1.59,N,0.82,M*55
$IIVWR,045.0,R,11.9,N,6.1,M,22.0,K*46
$IIVWT,075.0,R,8.7,N,4.5,M,16.1,K*75
$IIRSA,-4,A,,V*4E
$IIRSA,-2,A,,V*48
$IIAPB,A,A,1.63,L,N,,,,,BV1,149.5,T,,,A*70
$IIBWC,,,,,,149.5,T,,M,6.01,N,BV1*1A
$IIDBT,101.4,f,30.91,M,16.90,F*10
$IIGLL,4734.150,N,00322.320,W,,A,A*40
$IIHDG,178.0,,,,*47
$IIHDM,178.0,M*2C
$IIRMB,A,1.63,L,,BV1,,,,,6.01,149.5,,,A*10
$IIRSA,-4,A,,V*4E
$IIMWV,036.5,R,12.6,N,A*08
$IIMWV,059.5,T,8.6,N,A*3C
$IIVHW,,T,180.0,M,5.72,N,10.59,K*4F
$IIVPW,2.90,N,1.49,M*55
$IIVWR,036.5,R,12.6,N,6.5,M,23.3,K*4D
$IIVWT,059.5,R,8.6,N,4.4,M,15.9,K*75
$IIRSA,-8,A,,V*42
$IIHSC,,T,177.0,M*6E
$IIMWD,,T,240.0,M,8.6,N,4.4,M*62
$IIVTG,176.0,T,,M,5.6,N,10.4,K*41
$IIXTE,A,A,1.63,L,N,A*10
$IIRSA,-9,A,,V*43
$IIAPB,A,A,1.63,L,N,,,,,BV1,149.5,T,,,A*70
$IIBWC,,,,,,149.5,T,,M,6.00,N,BV1*1B
$IIDBT,107.6,f,32.80,M,17.93,F*14
$IIGLL,4734.150,N,00322.320,W,,A,A*40
$IIHDG,179.0,,,,*46
$IIHDM,179.0,M*2D
$IIRMB,A,1.63,L,,BV1,,,,,6.00,149.5,,,A*11
$IIRSA,-4,A,,V*4E
$IIMWV,078.5,R,11.4,N,A*03
$IIMWV,109.5,T,11.8,N,A*0E
$IIVHW,,T,179.0,M,6.28,N,11.63,K*4D
$IIVPW,-2.10,N,-1.08,M*58
$IIVWR,078.5,R,11.4,N,5.9,M,21.1,K*49
$IIVWT,109.5,R,11.8,N,6.1,M,21.9,K*47
$IIRSA,-5,A,,V*4F
$IIRSA,-3,A,,V*49
$IIAPB,A,A,1.63,L,N,,,,,BV1,149.5,T,,,A*70
$IIBWC,,,,,,149.5,T,,M,6.00,N,BV1*1B
$IIDBT,105.4,f,32.13,M,17.56,F*17
$IIGLL,4734.150,N,00322.320,W,,A,A*40
$IIHDG,172.0,,,,*4D
$IIHDM,175.5,M*24
$IIRMB,A,1.63,L,,BV1,,,,,6.00,149.5,,,A*11
$IIRSA,3,A,,V*64
$IIMWV,055.5,R,11.8,N,A*00
$IIMWV,085.5,T,9.7,N,A*3D
$IIVHW,,T,175.5,M,6.22,N,11.52,K*4C
$IIVPW,0.27,N,0.14,M*52
$IIVWR,055.5,R,11.8,N,6.1,M,21.9,K*49
$IIVWT,087.5,R,9.7,N,5.0,M,18.0,K*77
$IIRSA,-3,A,,V*49
$IIRSA,-5,A,,V*4F
$IIMTW,19.0,C*1B
$IIZTG,,010204,BV1*47
$IIHSC,,T,177.0,M*6E
$IIMWD,,T,252.5,M,8.0,N,4.1,M*67
$IIVTG,165.5,T,,M,5.8,N,10.7,K*4B
$IIXTE,A,A,1.63,L,N,A*10
$IIRSA,-4,A,,V*4E
$IIAPB,A,A,1.63,L,N,,,,,BV1,149.5,T,,,A*70
$IIBWC,,,,,,149.5,T,,M,6.00,N,BV1*1B
$IIDBT,94.2,f,28.72,M,15.70,F*22
$IIGLL,4734.150,N,00322.320,W,,A,A*40
$IIHDG,177.0,,,,*48
$IIHDM,177.0,M*23
$IIRMB,A,1.63,L,,BV1,,,,,6.00,149.5,,,A*11
$IIRSA,-4,A,,V*4E
$IIMWV,041.5,R,10.9,N,A*05
$IIMWV,079.5,T,6.7,N,A*31
$IIVHW,,T,177.0,M,6.23,N,11.54,K*4C
$IIVPW,1.14,N,0.59,M*5A
$IIVWR,041.5,R,10.0,N,5.2,M,18.5,K*43
$IIVWT,079.0,R,6.7,N,3.5,M,12.4,K*71
$IIRSA,0,A,,V*67
$IIAPB,A,A,1.63,L,N,,,,,BV1,149.5,T,,,A*70
$IIBWC,,,,,,149.5,T,,M,5.99,N,BV1*18
$IIDBT,96.3,f,29.36,M,16.05,F*21
$IIGLL,4734.140,N,00322.320,W,,A,A*41
$IIHDG,176.0,,,,*49
$IIHDM,176.0,M*22
$IIRMB,A,1.63,L,,BV1,,,,,5.99,149.5,,,A*12
$IIRSA,-2,A,,V*48
$IIMWV,036.0,R,12.6,N,A*0D
$IIMWV,060.0,T,8.5,N,A*30
$IIVHW,,T,179.0,M,5.96,N,11.04,K*4A
$IIVPW,2.98,N,1.54,M*51
$IIVWR,036.0,R,12.6,N,6.5,M,23.3,K*48
$IIVWT,060.0,R,8.5,N,4.4,M,15.7,K*77
$IIRSA,-6,A,,V*4C
$IIRSA,-6,A,,V*4C
$IIAPB,A,A,1.63,L,N,,,,,BV1,149.0,T,,,A*75
$IIBWC,,,,,,149.0,T,,M,5.99,N,BV1*1D
$IIDBT,96.6,f,29.45,M,16.10,F*24
$IIGLL,4734.140,N,00322.320,W,,A,A*41
$IIHDG,176.0,,,,*49
$IIHDM,176.0,M*22
$IIRMB,A,1.63,L,,BV1,,,,,5.99,149.0,,,A*17
$IIRSA,-5,A,,V*4F
$IIMWV,036.5,R,11.2,N,A*0F
$IIMWV,067.0,T,7.2,N,A*3F
$IIVHW,,T,178.5,M,5.97,N,11.06,K*4D
$IIVPW,2.48,N,1.28,M*57
$IIVWR,036.5,R,11.2,N,5.8,M,20.7,K*43
$IIVWT,065.5,R,7.3,N,3.8,M,13.5,K*71
$IIRSA,-4,A,,V*4E
$IIHSC,,T,177.0,M*6E
$IIMWD,,T,268.5,M,9.0,N,4.6,M*68
$IIVLW,4930.1,N,9.14,N*4E
$IIVTG,178.5,T,,M,6.0,N,11.1,K*4B
$IIXTE,A,A,1.63,L,N,A*10
$IIRSA,1,A,,V*66
$IIAPB,A,A,1.63,L,N,,,,,BV1,149.0,T,,,A*75
$IIBWC,,,,,,149.0,T,,M,5.99,N,BV1*1D
$IIDBT,100.9,f,30.76,M,16.81,F*15
$IIGLL,4734.140,N,00322.320,W,,A,A*41
$IIHDG,179.0,,,,*46
$IIHDM,179.0,M*2D
$IIRMB,A,1.63,L,,BV1,,,,,5.99,149.0,,,A*17
$IIRSA,-4,A,,V*4E
$IIMWV,056.0,R,11.6,N,A*08
$IIMWV,088.5,T,9.6,N,A*31
$IIVHW,,T,179.5,M,5.97,N,11.06,K*4C
$IIVPW,0.31,N,0.16,M*57
$IIVWR,056.0,R,11.6,N,6.0,M,21.5,K*4C
$IIVWT,087.0,R,9.6,N,4.9,M,17.8,K*7C
$IIRSA,-6,A,,V*4C
$IIRSA,0,A,,V*67
$IIAPB,A,A,1.63,L,N,,,,,BV1,149.0,T,,,A*75
$IIBWC,,,,,,149.0,T,,M,5.99,N,BV1*1D
$IIDBT,102.8,f,31.34,M,17.13,F*1B
$IIGLL,4734.130,N,00322.320,W,,A,A*46
$IIHDG,175.0,,,,*4A
$IIHDM,175.0,M*21
$IIRMB,A,1.63,L,,BV1,,,,,5.99,149.0,,,A*17
$IIRSA,-1,A,,V*4B
$IIMWV,058.5,R,10.4,N,A*00
$IIMWV,092.0,T,8.8,N,A*30
$IIVHW,,T,175.0,M,5.72,N,10.59,K*45
$IIVPW,-0.20,N,-0.10,M*51
$IIVWR,058.5,R,10.4,N,5.4,M,19.3,K*4E
$IIVWT,094.0,R,8.8,N,4.5,M,16.3,K*77
$IIRSA,-3,A,,V*49
$IIRSA,-4,A,,V*4E
$IIMTW,19.0,C*1B
$IIZTG,,010256,BV1*40
$IIHSC,,T,177.0,M*6E
$IIMWD,,T,242.0,M,5.3,N,2.7,M*6D
$IIVLW,4930.1,N,9.14,N*4E
$IIVTG,174.0,T,,M,5.7,N,10.6,K*40
$IIXTE,A,A,1.64,L,N,A*17
$IIAPB,A,A,1.64,L,N,,,,,BV1,149.0,T,,,A*72
$IIBWC,,,,,,149.0,T,,M,5.98,N,BV1*1C
$IIDBT,98.5,f,30.03,M,16.41,F*27
$IIGLL,4734.130,N,00322.310,W,,A,A*45
$IIHDG,175.5,,,,*4F
$IIHDM,175.5,M*24
$IIRMB,A,1.64,L,,BV1,,,,,5.98,149.0,,,A*11
$IIRSA,-4,A,,V*4E
$IIMWV,039.5,R,11.4,N,A*06
$IIMWV,067.0,T,7.8,N,A*35
$IIVHW,,T,176.0,M,5.74,N,10.63,K*49
$IIVPW,2.24,N,1.15,M*53
$IIVWR,039.5,R,11.4,N,5.9,M,21.1,K*4C
$IIVWT,069.0,R,7.7,N,4.0,M,14.3,K*72
$IIRSA,-1,A,,V*4B
$IIAPB,A,A,1.64,L,N,,,,,BV1,149.0,T,,,A*72
$IIBWC,,,,,,149.0,T,,M,5.98,N,BV1*1C
$IIDBT,98.8,f,30.12,M,16.46,F*2D
$IIGLL,4734.130,N,00322.310,W,,A,A*45
$IIHDG,176.0,,,,*49
$IIHDM,176.0,M*22
$IIRMB,A,1.64,L,,BV1,,,,,5.98,149.0,,,A*11
$IIRSA,-2,A,,V*48
$IIMWV,044.5,R,10.6,N,A*0F
$IIMWV,078.0,T,7.5,N,A*36
$IIVHW,,T,176.0,M,5.97,N,11.06,K*46
$IIVPW,1.24,N,0.64,M*57
$IIVWR,045.0,R,10.6,N,5.5,M,19.6,K*41
$IIVWT,074.0,R,8.6,N,4.4,M,15.9,K*7F
$IIRSA,-4,A,,V*4E
$IIRSA,-1,A,,V*4B
$IIAPB,A,A,1.64,L,N,,,,,BV1,149.0,T,,,A*72
$IIBWC,,,,,,149.0,T,,M,5.98,N,BV1*1C
$IIDBT,98.3,f,29.97,M,16.38,F*2A
$IIGLL,4734.120,N,00322.310,W,,A,A*44
$IIHDG,179.0,,,,*46
$IIHDM,179.0,M*2D
$IIRMB,A,1.64,L,,BV1,,,,,5.98,149.0,,,A*11
$IIRSA,-1,A,,V*4B
$IIMWV,038.0,R,12.5,N,A*00
$IIMWV,065.0,T,8.4,N,A*34
$IIVHW,,T,180.0,M,6.22,N,11.52,K*43
$IIVPW,2.63,N,1.36,M*51
$IIVWR,023.5,R,12.5,N,6.4,M,23.1,K*49
$IIVWT,044.5,R,6.9,N,3.6,M,12.8,K*7B
$IIRSA,-1,A,,V*4B
$IIHSC,,T,177.0,M*6E
$IIMWD,,T,223.5,M,6.9,N,3.6,M*66
$IIVLW,4930.1,N,9.14,N*4E
$IIVTG,183.0,T,,M,6.2,N,11.5,K*4C
$IIXTE,A,A,1.64,L,N,A*17
$IIAPB,A,A,1.64,L,N,,,,,BV1,149.0,T,,,A*72
$IIBWC,,,,,,149.0,T,,M,5.97,N,BV1*13
$IIDBT,100.6,f,30.67,M,16.76,F*12
$IIGLL,4734.120,N,00322.310,W,,A,A*44
$IIHDG,181.0,,,,*41
$IIHDM,181.0,M*2A
$IIRMB,A,1.64,L,,BV1,,,,,5.97,149.0,,,A*1E
$IIRSA,-4,A,,V*4E
$IIMWV,060.0,R,11.2,N,A*09
$IIMWV,090.5,T,9.6,N,A*38
$IIVHW,,T,181.0,M,5.72,N,10.59,K*4E
$IIVPW,-0.21,N,-0.11,M*51
$IIVWR,044.0,R,12.2,N,6.3,M,22.6,K*4B
$IIVWT,072.0,R,8.9,N,4.6,M,16.5,K*7B
$IIRSA,-4,A,,V*4E
$IIAPB,A,A,1.64,L,N,,,,,BV1,149.0,T,,,A*72
$IIBWC,,,,,,149.0,T,,M,5.97,N,BV1*13
$IIDBT,100.6,f,30.67,M,16.76,F*12
$IIGLL,4734.120,N,00322.310,W,,A,A*44
$IIHDG,179.5,,,,*43
$IIHDM,179.5,M*28
$IIRMB,A,1.64,L,,BV1,,,,,5.97,149.0,,,A*1E
$IIRSA,-4,A,,V*4E
$IIMWV,035.5,R,11.2,N,A*0C
$IIMWV,064.0,T,7.2,N,A*3C
$IIVHW,,T,179.0,M,5.97,N,11.06,K*49
$IIVPW,2.62,N,1.35,M*53
$IIVWR,040.5,R,11.8,N,6.1,M,21.9,K*4D
$IIVWT,067.0,R,8.3,N,4.3,M,15.4,K*72
$IIRSA,-3,A,,V*49
$IIMTW,19.0,C*1B
$IIZTG,,010357,BV1*40
$IIRSA,-3,A,,V*49
$IIHSC,,T,177.0,M*6E
$IIMWD,,T,262.5,M,7.9,N,4.1,M*62
$IIVLW,4930.1,N,9.14,N*4E
$IIVTG,176.0,T,,M,5.6,N,10.4,K*41
$IIXTE,A,A,1.64,L,N,A*17
$IIAPB,A,A,1.64,L,N,,,,,BV1,149.0,T,,,A*72
$IIBWC,,,,,,149.0,T,,M,5.97,N,BV1*13
$IIDBT,98.3,f,29.97,M,16.38,F*2A
$IIGLL,4734.110,N,00322.310,W,,A,A*47
$IIHDG,178.0,,,,*47
$IIHDM,178.0,M*2C
$IIRMB,A,1.64,L,,BV1,,,,,5.97,149.0,,,A*1E
$IIRSA,-6,A,,V*4C
$IIMWV,032.0,R,12.1,N,A*0E
$IIMWV,056.0,T,7.7,N,A*38
$IIVHW,,T,180.0,M,5.96,N,11.04,K*4C
$IIVPW,3.33,N,1.72,M*55
$IIVWR,032.0,R,12.1,N,6.2,M,22.4,K*4A
$IIVWT,056.0,R,7.7,N,4.0,M,14.3,K*7E
$IIRSA,-4,A,,V*4E
$IIAPB,A,A,1.64,L,N,,,,,BV1,149.0,T,,,A*72
$IIBWC,,,,,,149.0,T,,M,5.97,N,BV1*13
$IIDBT,98.3,f,29.97,M,16.38,F*2A
$IIGLL,4734.110,N,00322.310,W,,A,A*47
$IIHDG,179.5,,,,*43
$IIHDM,179.5,M*28
$IIRMB,A,1.64,L,,BV1,,,,,5.97,149.0,,,A*1E
$IIRSA,-3,A,,V*49
$IIMWV,035.5,R,11.6,N,A*08
$IIMWV,062.5,T,7.5,N,A*38
$IIVHW,,T,178.0,M,5.97,N,11.06,K*48
$IIVPW,2.48,N,1.28,M*57
$IIVWR,037.0,R,11.3,N,5.8,M,20.9,K*48
$IIVWT,067.5,R,7.3,N,3.8,M,13.5,K*73
$IIRSA,0,A,,V*67
$IIRSA,1,A,,V*66
$IIAPB,A,A,1.64,L,N,,,,,BV1,149.0,T,,,A*72
$IIBWC,,,,,,149.0,T,,M,5.96,N,BV1*12
$IIDBT,99.2,f,30.24,M,16.53,F*27
$IIGLL,4734.110,N,00322.310,W,,A,A*47
$IIHDG,178.5,,,,*42
$IIHDM,178.5,M*29
$IIRMB,A,1.64,L,,BV1,,,,,5.96,149.0,,,A*1F
$IIRSA,-6,A,,V*4C
$IIMWV,053.5,R,12.3,N,A*0E
$IIMWV,054.5,T,6.5,N,A*3C
$IIVHW,,T,174.0,M,5.97,N,11.06,K*44
$IIVPW,3.47,N,1.79,M*5D
$IIVWR,028.5,R,11.1,N,5.7,M,20.6,K*41
$IIVWT,051.0,R,6.8,N,3.5,M,12.6,K*76
$IIRSA,-4,A,,V*4E
$IIHSC,,T,177.0,M*6E
$IIMWD,,T,225.0,M,6.8,N,3.5,M*67
$IIVLW,4930.1,N,9.14,N*4E
$IIVTG,174.0,T,,M,4.6,N,8.5,K*7A
$IIXTE,A,A,1.64,L,N,A*17
$IIRSA,2,A,,V*65
$IIAPB,A,A,1.64,L,N,,,,,BV1,149.0,T,,,A*72
$IIBWC,,,,,,149.0,T,,M,5.96,N,BV1*12
$IIDBT,101.6,f,30.98,M,16.93,F*18
$IIGLL,4734.100,N,00322.310,W,,A,A*46
$IIHDG,176.0,,,,*49
$IIHDM,176.0,M*22
$IIRMB,A,1.64,L,,BV1,,,,,5.96,149.0,,,A*1F
$IIRSA,-4,A,,V*4E
$IIMWV,045.0,R,10.6,N,A*0B
$IIMWV,080.5,T,7.3,N,A*32
$IIVHW,,T,176.0,M,5.98,N,11.07,K*48
$IIVPW,0.99,N,0.51,M*56
$IIVWR,045.0,R,10.2,N,5.3,M,18.9,K*4D
$IIVWT,080.5,R,7.3,N,3.8,M,13.5,K*7A
$IIRSA,-3,A,,V*49
$IIRSA,2,A,,V*65
$IIAPB,A,A,1.64,L,N,,,,,BV1,149.0,T,,,A*72
$IIBWC,,,,,,149.0,T,,M,5.96,N,BV1*12
$IIDBT,102.8,f,31.34,M,17.13,F*1B
$IIGLL,4734.100,N,00322.310,W,,A,A*46
$IIHDG,175.5,,,,*4F
$IIHDM,175.5,M*24
$IIRMB,A,1.64,L,,BV1,,,,,5.96,149.0,,,A*1F
$IIRSA,-2,A,,V*48
$IIMWV,057.5,R,11.2,N,A*08
$IIMWV,088.0,T,9.4,N,A*36
$IIVHW,,T,175.5,M,5.46,N,10.11,K*4B
$IIVPW,0.33,N,0.17,M*54
$IIVWR,057.5,R,11.2,N,5.8,M,20.7,K*44
$IIVWT,086.5,R,9.4,N,4.8,M,17.4,K*77
$IIRSA,-1,A,,V*4B
$IIRSA,1,A,,V*66
$IIMTW,19.0,C*1B
$IIZTG,,010030,BV1*42
$IIHSC,,T,177.0,M*6E
$IIMWD,,T,253.5,M,7.9,N,4.1,M*60
$IIVLW,4930.1,N,9.14,N*4E
$IIVTG,156.5,T,,M,5.9,N,10.9,K*44
$IIXTE,A,A,1.64,L,N,A*17
$IIRSA,-3,A,,V*49
$IIAPB,A,A,1.64,L,N,,,,,BV1,149.0,T,,,A*72
$IIBWC,,,,,,149.0,T,,M,5.95,N,BV1*11
$IIDBT,95.8,f,29.21,M,15.96,F*26
$IIGLL,4734.100,N,00322.310,W,,A,A*46
$IIHDG,176.0,,,,*49
$IIHDM,176.0,M*22
$IIRMB,A,1.64,L,,BV1,,,,,5.95,149.0,,,A*1C
$IIRSA,-1,A,,V*4B
$IIMWV,029.5,R,9.8,N,A*32
$IIMWV,057.5,T,5.7,N,A*3E
$IIVHW,,T,174.5,M,5.47,N,10.13,K*49
$IIVPW,1.51,N,0.78,M*58
$IIVWR,034.5,R,8.3,N,4.3,M,15.4,K*77
$IIVWT,074.0,R,4.8,N,2.5,M,8.9,K*46
$IIRSA,3,A,,V*64
$IIAPB,A,A,1.64,L,N,,,,,BV1,149.0,T,,,A*72
$IIBWC,,,,,,149.0,T,,M,5.95,N,BV1*11
$IIDBT,95.8,f,29.21,M,15.96,F*26
$IIGLL,4734.090,N,00322.310,W,,A,A*4E
$IIHDG,174.0,,,,*4B
$IIHDM,174.0,M*20
$IIRMB,A,1.64,L,,BV1,,,,,5.95,149.0,,,A*1C
$IIRSA,0,A,,V*67
$IIMWV,039.5,R,11.3,N,A*01
$IIMWV,064.0,T,7.9,N,A*37
$IIVHW,,T,178.5,M,5.22,N,9.67,K*7D
$IIVPW,2.29,N,1.18,M*53
$IIVWR,039.5,R,11.3,N,5.8,M,20.9,K*43
$IIVWT,064.0,R,7.9,N,4.1,M,14.6,K*75
$IIRSA,-6,A,,V*4C
$IIRSA,-7,A,,V*4D
$IIAPB,A,A,1.64,L,N,,,,,BV1,149.0,T,,,A*72
$IIBWC,,,,,,149.0,T,,M,5.95,N,BV1*11
$IIDBT,103.1,f,31.43,M,17.18,F*18
$IIGLL,4734.090,N,00322.310,W,,A,A*4E
$IIHDG,178.0,,,,*47
$IIHDM,178.0,M*2C
$IIRMB,A,1.64,L,,BV1,,,,,5.95,149.0,,,A*1C
$IIRSA,-5,A,,V*4F
$IIMWV,023.5,R,10.9,N,A*01
$IIMWV,045.5,T,6.0,N,A*39
$IIVHW,,T,175.0,M,5.72,N,10.59,K*45
$IIVPW,3.76,N,1.94,M*5C
$IIVWR,023.5,R,10.9,N,5.6,M,20.2,K*46
$IIVWT,041.0,R,6.6,N,3.4,M,12.2,K*7C
$IIRSA,3,A,,V*64
$IIHSC,,T,177.0,M*6E
$IIMWD,,T,217.0,M,6.6,N,3.4,M*69
$IIVLW,4930.1,N,9.14,N*4E
$IIVTG,180.5,T,,M,5.8,N,10.7,K*40
$IIXTE,A,A,1.64,L,N,A*17
$IIRSA,0,A,,V*67
$IIAPB,A,A,1.64,L,N,,,,,BV1,149.0,T,,,A*72
$IIBWC,,,,,,149.0,T,,M,5.95,N,BV1*11
$IIDBT,103.1,f,31.43,M,17.18,F*18
$IIGLL,4734.090,N,00322.310,W,,A,A*4E
$IIHDG,177.0,,,,*48
$IIHDM,177.0,M*23
$IIRMB,A,1.64,L,,BV1,,,,,5.95,149.0,,,A*1C
$IIRSA,-2,A,,V*48
$IIMWV,023.5,R,11.2,N,A*0B
$IIMWV,044.5,T,6.3,N,A*3B
$IIVHW,,T,177.5,M,5.71,N,10.57,K*4F
$IIVPW,4.07,N,2.10,M*52
$IIVWR,023.5,R,11.2,N,5.8,M,20.7,K*47
$IIVWT,041.5,R,6.7,N,3.5,M,12.4,K*7F
$IIRSA,-2,A,,V*48
$IIRSA,0,A,,V*67
$IIAPB,A,A,1.65,L,N,,,,,BV1,149.0,T,,,A*73
$IIBWC,,,,,,149.0,T,,M,5.94,N,BV1*10
$IIDBT,104.6,f,31.89,M,17.43,F*10
$IIGLL,4734.090,N,00322.310,W,,A,A*4E
$IIHDG,176.0,,,,*49
$IIHDM,176.0,M*22
$IIRMB,A,1.65,L,,BV1,,,,,5.94,149.0,,,A*1C
$IIRSA,2,A,,V*65
$IIMWV,042.5,R,9.4,N,A*33
$IIMWV,079.5,T,6.4,N,A*32
$IIVHW,,T,177.5,M,5.72,N,10.59,K*42
$IIVPW,1.04,N,0.54,M*56
$IIVWR,042.5,R,9.4,N,4.8,M,17.4,K*79
$IIVWT,079.5,R,6.4,N,3.3,M,11.9,K*7F
$IIRSA,2,A,,V*65
$IIRSA,-6,A,,V*4C
$IIMTW,19.0,C*1B
$IIZTG,,010600,BV1*47
$IIHSC,,T,177.0,M*6E
$IIMWD,,T,244.0,M,6.5,N,3.4,M*6C
$IIVLW,4930.1,N,9.14,N*4E
$IIVTG,170.5,T,,M,5.4,N,10.0,K*44
$IIXTE,A,A,1.65,L,N,A*16
$IIAPB,A,A,1.65,L,N,,,,,BV1,149.0,T,,,A*73
$IIBWC,,,,,,149.0,T,,M,5.94,N,BV1*10
$IIDBT,103.7,f,31.62,M,17.28,F*1E
$IIGLL,4734.080,N,00322.310,W,,A,A*4F
$IIHDG,178.5,,,,*42
$IIHDM,178.5,M*29
$IIRMB,A,1.65,L,,BV1,,,,,5.94,149.0,,,A*1C
$IIRSA,2,A,,V*65
$IIMWV,037.5,R,12.6,N,A*09
$IIMWV,061.0,T,8.7,N,A*33
$IIVHW,,T,178.0,M,5.80,N,10.74,K*4A
$IIVPW,2.81,N,1.45,M*59
$IIVWR,037.5,R,12.6,N,6.5,M,23.3,K*4C
$IIVWT,061.0,R,8.7,N,4.5,M,16.1,K*70
$IIRSA,-5,A,,V*4F
$IIAPB,A,A,1.65,L,N,,,,,BV1,149.0,T,,,A*73
$IIBWC,,,,,,149.0,T,,M,5.94,N,BV1*10
$IIDBT,103.7,f,31.62,M,17.28,F*1E
$IIGLL,4734.080,N,00322.310,W,,A,A*4F
$IIHDG,179.5,,,,*43
$IIHDM,179.0,M*2D
$IIRMB,A,1.65,L,,BV1,,,,,5.94,149.0,,,A*1C
$IIRSA,-5,A,,V*4F
$IIMWV,041.5,R,11.2,N,A*0F
$IIMWV,068.5,T,7.9,N,A*3E
$IIVHW,,T,179.0,M,5.47,N,10.13,K*41
$IIVPW,2.00,N,1.03,M*52
$IIVWR,041.5,R,11.2,N,5.8,M,20.7,K*43
$IIVWT,070.5,R,7.8,N,4.0,M,14.4,K*77
$IIRSA,-3,A,,V*49
$IIAPB,A,A,1.65,L,N,,,,,BV1,149.0,T,,,A*73
$IIBWC,,,,,,149.0,T,,M,5.94,N,BV1*10
$IIDBT,105.1,f,32.04,M,17.51,F*13
$IIGLL,4734.080,N,00322.310,W,,A,A*4F
$IIHDG,180.5,,,,*45
$IIHDM,180.5,M*2E
$IIRMB,A,1.65,L,,BV1,,,,,5.94,149.0,,,A*1C
$IIRSA,-8,A,,V*42
$IIMWV,049.0,R,11.7,N,A*07
$IIMWV,077.5,T,9.0,N,A*37
$IIVHW,,T,182.0,M,5.72,N,10.59,K*4D
$IIVPW,1.24,N,0.64,M*57
$IIVWR,049.0,R,11.7,N,6.0,M,21.7,K*41
$IIVWT,079.0,R,8.9,N,4.6,M,16.5,K*70
$IIRSA,-8,A,,V*42
$IIHSC,,T,177.0,M*6E
$IIMWD,,T,260.5,M,9.4,N,4.8,M*6A
$IIVLW,4930.1,N,9.14,N*4E
$IIVTG,172.0,T,,M,5.8,N,10.7,K*48
$IIXTE,A,A,1.65,L,N,A*16
$IIAPB,A,A,1.65,L,N,,,,,BV1,149.0,T,,,A*73
$IIBWC,,,,,,149.0,T,,M,5.93,N,BV1*17
$IIDBT,105.1,f,32.04,M,17.51,F*13
$IIGLL,4734.080,N,00322.310,W,,A,A*4F
$IIHDG,182.0,,,,*42
$IIHDM,182.0,M*29
$IIRMB,A,1.65,L,,BV1,,,,,5.93,149.0,,,A*1B
$IIRSA,-2,A,,V*48
$IIMWV,029.0,R,14.2,N,A*01
$IIMWV,048.0,T,9.2,N,A*3C
$IIVHW,,T,182.0,M,6.22,N,11.52,K*41
$IIVPW,4.16,N,2.14,M*56
$IIVWR,029.0,R,14.2,N,7.3,M,26.3,K*46
$IIVWT,048.0,R,9.2,N,4.7,M,17.0,K*7D
$IIRSA,-3,A,,V*49
$IIAPB,A,A,1.65,L,N,,,,,BV1,149.0,T,,,A*73
$IIBWC,,,,,,149.0,T,,M,5.93,N,BV1*17
$IIDBT,106.4,f,32.44,M,17.73,F*11
$IIGLL,4734.070,N,00322.310,W,,A,A*40
$IIHDG,184.0,,,,*44
$IIHDM,184.0,M*2F
$IIRMB,A,1.65,L,,BV1,,,,,5.93,149.0,,,A*1B
$IIRSA,-7,A,,V*4D
$IIMWV,045.0,R,13.0,N,A*0E
$IIMWV,068.0,T,9.9,N,A*35
$IIVHW,,T,183.0,M,5.47,N,10.13,K*44
$IIVPW,2.05,N,1.06,M*52
$IIVWR,045.0,R,13.0,N,6.7,M,24.1,K*4C
$IIVWT,074.0,R,10.3,N,5.3,M,19.1,K*41
$IIRSA,-3,A,,V*49
$IIMTW,18.5,C*1F
$IIZTG,,005444,BV1*41
$IIRSA,2,A,,V*65
$IIHSC,,T,177.0,M*6E
$IIMWD,,T,244.0,M,10.0,N,5.2,M*5E
$IIVTG,175.0,T,,M,6.5,N,12.0,K*44
$IIXTE,A,A,1.65,L,N,A*16
$IIAPB,A,A,1.65,L,N,,,,,BV1,149.0,T,,,A*73
$IIBWC,,,,,,149.0,T,,M,5.93,N,BV1*17
$IIDBT,110.0,f,33.54,M,18.33,F*19
$IIGLL,4734.070,N,00322.310,W,,A,A*40
$IIHDG,181.0,,,,*41
$IIHDM,181.0,M*2A
$IIRMB,A,1.65,L,,BV1,,,,,5.93,149.0,,,A*1B
$IIRSA,-5,A,,V*4F
$IIMWV,031.5,R,11.6,N,A*0C
$IIMWV,060.5,T,6.9,N,A*37
$IIVHW,,T,181.5,M,6.47,N,11.98,K*42
$IIVPW,3.19,N,1.64,M*5A
$IIVWR,031.5,R,11.6,N,6.0,M,21.5,K*48
$IIVWT,060.5,R,6.9,N,3.6,M,12.8,K*7D
$IIRSA,-4,A,,V*4E
$IIAPB,A,A,1.65,L,N,,,,,BV1,149.0,T,,,A*73
$IIBWC,,,,,,149.0,T,,M,5.92,N,BV1*16
$IIDBT,106.8,f,32.56,M,17.80,F*12
$IIGLL,4734.070,N,00322.310,W,,A,A*40
$IIHDG,178.5,,,,*42
$IIHDM,178.5,M*29
$IIRMB,A,1.65,L,,BV1,,,,,5.92,149.0,,,A*1A
$IIRSA,1,A,,V*66
$IIMWV,027.5,R,11.7,N,A*0A
$IIMWV,054.0,T,6.6,N,A*3A
$IIVHW,,T,182.0,M,6.48,N,12.00,K*49
$IIVPW,3.81,N,1.96,M*56
$IIVWR,054.5,R,13.3,N,6.9,M,24.6,K*43
$IIVWT,083.5,R,10.8,N,5.6,M,20.0,K*49
$IIRSA,-3,A,,V*49
$IIAPB,A,A,1.65,L,N,,,,,BV1,149.0,T,,,A*73
$IIBWC,,,,,,149.0,T,,M,5.92,N,BV1*16
$IIDBT,106.8,f,32.56,M,17.80,F*12
$IIGLL,4734.060,N,00322.300,W,,A,A*40
$IIHDG,186.5,,,,*43
$IIHDM,186.5,M*28
$IIRMB,A,1.65,L,,BV1,,,,,5.92,149.0,,,A*1A
$IIRSA,-6,A,,V*4C
$IIMWV,037.0,R,13.0,N,A*0B
$IIMWV,060.5,T,8.9,N,A*39
$IIVHW,,T,186.5,M,5.98,N,11.07,K*42
$IIVPW,2.81,N,1.45,M*59
$IIVWR,038.0,R,13.0,N,6.7,M,24.1,K*46
$IIVWT,066.0,R,7.8,N,4.0,M,14.4,K*75
$IIRSA,-4,A,,V*4E
$IIHSC,,T,177.0,M*6E
$IIMWD,,T,252.0,M,7.6,N,3.9,M*64
$IIVTG,193.5,T,,M,6.6,N,12.2,K*48
$IIXTE,A,A,1.65,L,N,A*16
$IIRSA,-2,A,,V*48
$IIAPB,A,A,1.65,L,N,,,,,BV1,149.0,T,,,A*73
$IIBWC,,,,,,149.0,T,,M,5.92,N,BV1*16
$IIDBT,103.8,f,31.65,M,17.30,F*1F
$IIGLL,4734.060,N,00322.300,W,,A,A*40
$IIHDG,183.0,,,,*43
$IIHDM,183.0,M*28
$IIRMB,A,1.65,L,,BV1,,,,,5.92,149.0,,,A*1A
$IIRSA,-6,A,,V*4C
$IIMWV,032.5,R,12.2,N,A*08
$IIMWV,057.5,T,7.7,N,A*3C
$IIVHW,,T,183.0,M,6.17,N,11.43,K*46
$IIVPW,0.70,N,0.36,M*50
$IIVWR,053.5,R,12.2,N,6.3,M,22.6,K*48
$IIVWT,083.5,R,9.8,N,5.1,M,18.1,K*7C
$IIRSA,-8,A,,V*42
$IIRSA,-6,A,,V*4C
$IIAPB,A,A,1.65,L,N,,,,,BV1,149.0,T,,,A*73
$IIBWC,,,,,,149.0,T,,M,5.92,N,BV1*16
$IIDBT,106.2,f,32.38,M,17.70,F*1F
$IIGLL,4734.050,N,00322.300,W,,A,A*43
$IIHDG,182.0,,,,*42
$IIHDM,182.0,M*29
$IIRMB,A,1.65,L,,BV1,,,,,5.92,149.0,,,A*1A
$IIRSA,-5,A,,V*4F
$IIMWV,032.5,R,12.1,N,A*0B
$IIMWV,057.0,T,7.7,N,A*39
$IIVHW,,T,182.0,M,5.96,N,11.04,K*4E
$IIVPW,0.16,N,0.08,M*5D
$IIVWR,052.5,R,10.2,N,5.3,M,18.9,K*4E
$IIVWT,088.5,R,8.0,N,4.1,M,14.8,K*7A
$IIRSA,-2,A,,V*48
$IIRSA,0,A,,V*67
$IIMTW,19.0,C*1B
$IIZTG,,005912,BV1*4F
$IIHSC,,T,177.0,M*6E
$IIMWD,,T,230.5,M,9.0,N,4.6,M*65
$IIVTG,178.0,T,,M,6.0,N,11.1,K*4E
$IIXTE,A,A,1.65,L,N,A*16
$IIRSA,-7,A,,V*4D
$IIAPB,A,A,1.65,L,N,,,,,BV1,149.0,T,,,A*73
$IIBWC,,,,,,149.0,T,,M,5.91,N,BV1*15
$IIDBT,106.2,f,32.38,M,17.70,F*1F
$IIGLL,4734.050,N,00322.300,W,,A,A*43
$IIHDG,180.5,,,,*45
$IIHDM,180.5,M*2E
$IIRMB,A,1.65,L,,BV1,,,,,5.91,149.0,,,A*19
$IIRSA,-4,A,,V*4E
$IIMWV,046.5,R,11.7,N,A*0D
$IIMWV,076.5,T,8.7,N,A*30
$IIVHW,,T,180.0,M,5.97,N,11.06,K*4F
$IIVPW,1.39,N,0.72,M*5C
$IIVWR,046.5,R,11.7,N,6.0,M,21.7,K*4B
$IIVWT,076.5,R,8.7,N,4.5,M,16.1,K*73
$IIRSA,-4,A,,V*4E
$IIAPB,A,A,1.65,L,N,,,,,BV1,149.0,T,,,A*73
$IIBWC,,,,,,149.0,T,,M,5.91,N,BV1*15
$IIDBT,106.2,f,32.38,M,17.70,F*1F
$IIGLL,4734.050,N,00322.300,W,,A,A*43
$IIHDG,180.0,,,,*40
$IIHDM,180.0,M*2B
$IIRMB,A,1.65,L,,BV1,,,,,5.91,149.0,,,A*19
$IIRSA,-4,A,,V*4E
$IIMWV,031.5,R,13.8,N,A*00
$IIMWV,058.0,T,9.6,N,A*39
$IIVHW,,T,181.0,M,5.97,N,11.06,K*4E
$IIVPW,3.12,N,1.61,M*54
$IIVWR,036.5,R,13.6,N,7.0,M,25.2,K*4F
$IIVWT,058.5,R,9.4,N,4.8,M,17.4,K*74
$IIRSA,-4,A,,V*4E
$IIRSA,-4,A,,V*4E
$IIAPB,A,A,1.65,L,N,,,,,BV1,149.0,T,,,A*73
$IIBWC,,,,,,149.0,T,,M,5.91,N,BV1*15
$IIDBT,106.1,f,32.35,M,17.68,F*18
$IIGLL,4734.040,N,00322.300,W,,A,A*42
$IIHDG,181.0,,,,*41
$IIHDM,181.0,M*2A
$IIRMB,A,1.66,L,,BV1,,,,,5.91,149.0,,,A*1A
$IIRSA,-4,A,,V*4E
$IIMWV,043.5,R,13.5,N,A*08
$IIMWV,060.0,T,9.2,N,A*36
$IIVHW,,T,182.0,M,5.97,N,11.06,K*4D
$IIVPW,2.98,N,1.54,M*51
$IIVWR,037.0,R,13.3,N,6.9,M,24.6,K*43
$IIVWT,060.0,R,9.2,N,4.7,M,17.0,K*77
$IIRSA,-6,A,,V*4C
$IIHSC,,T,177.0,M*6E
$IIMWD,,T,242.0,M,9.2,N,4.7,M*66
$IIVLW,4930.2,N,9.24,N*4E
$IIVTG,183.0,T,,M,6.0,N,11.1,K*4A
$IIXTE,A,A,1.66,L,N,A*15
$IIRSA,-3,A,,V*49
$IIAPB,A,A,1.66,L,N,,,,,BV1,149.0,T,,,A*70
$IIBWC,,,,,,149.0,T,,M,5.90,N,BV1*14
$IIDBT,105.6,f,32.20,M,17.60,F*10
$IIGLL,4734.040,N,00322.300,W,,A,A*42
$IIHDG,183.0,,,,*43
$IIHDM,183.0,M*28
$IIRMB,A,1.66,L,,BV1,,,,,5.90,149.0,,,A*1B
$IIRSA,-3,A,,V*49
$IIMWV,038.0,R,12.4,N,A*01
$IIMWV,062.0,T,8.6,N,A*31
$IIVHW,,T,184.0,M,5.72,N,10.59,K*4B
$IIVPW,2.69,N,1.39,M*54
$IIVWR,038.0,R,12.4,N,6.4,M,23.0,K*46
$IIVWT,062.0,R,8.6,N,4.4,M,15.9,K*78
$IIRSA,-7,A,,V*4D
$IIRSA,-4,A,,V*4E
$IIAPB,A,A,1.66,L,N,,,,,BV1,148.5,T,,,A*74
$IIBWC,,,,,,148.5,T,,M,5.90,N,BV1*10
$IIDBT,108.9,f,33.20,M,18.15,F*1E
$IIGLL,4734.040,N,00322.300,W,,A,A*42
$IIHDG,181.0,,,,*41
$IIHDM,181.0,M*2A
$IIRMB,A,1.66,L,,BV1,,,,,5.90,148.5,,,A*1F
$IIRSA,-4,A,,V*4E
$IIMWV,033.0,R,11.8,N,A*05
$IIMWV,055.0,T,8.5,N,A*36
$IIVHW,,T,180.0,M,5.87,N,10.87,K*46
$IIVPW,3.37,N,1.74,M*57
$IIVWR,033.0,R,12.8,N,6.6,M,23.7,K*44
$IIVWT,055.0,R,8.5,N,4.4,M,15.7,K*71
$IIRSA,-3,A,,V*49
$IIRSA,-3,A,,V*49
$IIMTW,19.0,C*1B
$IIZTG,,010312,BV1*41
$IIHSC,,T,177.0,M*6E
$IIMWD,,T,244.5,M,7.0,N,3.6,M*6F
$IIVLW,4930.2,N,9.24,N*4E
$IIVTG,183.0,T,,M,5.6,N,10.4,K*4B
$IIXTE,A,A,1.66,L,N,A*15
$IIAPB,A,A,1.66,L,N,,,,,BV1,148.5,T,,,A*74
$IIBWC,,,,,,148.5,T,,M,5.90,N,BV1*10
$IIDBT,107.8,f,32.87,M,17.96,F*18
$IIGLL,4734.030,N,00322.300,W,,A,A*45
$IIHDG,181.5,,,,*44
$IIHDM,181.5,M*2F
$IIRMB,A,1.66,L,,BV1,,,,,5.90,148.5,,,A*1F
$IIRSA,-7,A,,V*4D
$IIMWV,052.5,R,12.2,N,A*0E
$IIMWV,081.5,T,9.7,N,A*39
$IIVHW,,T,182.0,M,5.93,N,10.98,K*4F
$IIVPW,2.87,N,1.48,M*52
$IIVWR,039.0,R,13.9,N,7.2,M,25.7,K*4D
$IIVWT,061.0,R,10.0,N,5.2,M,18.5,K*42
$IIRSA,-8,A,,V*42
$IIAPB,A,A,1.66,L,N,,,,,BV1,148.5,T,,,A*74
$IIBWC,,,,,,148.5,T,,M,5.90,N,BV1*10
$IIDBT,102.0,f,31.10,M,17.00,F*17
$IIGLL,4734.030,N,00322.300,W,,A,A*45
$IIHDG,182.0,,,,*42
$IIHDM,182.0,M*29
$IIRMB,A,1.66,L,,BV1,,,,,5.90,148.5,,,A*1F
$IIRSA,-5,A,,V*4F
$IIMWV,059.5,R,11.1,N,A*05
$IIMWV,091.5,T,9.5,N,A*3A
$IIVHW,,T,182.0,M,5.86,N,10.85,K*47
$IIVPW,-0.15,N,-0.08,M*5E
$IIVWR,059.5,R,11.1,N,5.7,M,20.6,K*47
$IIVWT,091.5,R,9.5,N,4.9,M,17.6,K*73
$IIRSA,2,A,,V*65
$IIRSA,-8,A,,V*42
$IIAPB,A,A,1.66,L,N,,,,,BV1,148.5,T,,,A*74
$IIBWC,,,,,,148.5,T,,M,5.89,N,BV1*18
$IIDBT,102.0,f,31.10,M,17.00,F*17
$IIGLL,4734.030,N,00322.300,W,,A,A*45
$IIHDG,181.5,,,,*44
$IIHDM,181.0,M*2A
$IIRMB,A,1.66,L,,BV1,,,,,5.89,148.5,,,A*17
$IIRSA,-9,A,,V*43
$IIMWV,053.5,R,10.8,N,A*07
$IIMWV,085.5,T,8.7,N,A*3C
$IIVHW,,T,181.0,M,5.70,N,10.56,K*43
$IIVPW,0.45,N,0.23,M*52
$IIVWR,053.5,R,10.8,N,5.6,M,20.0,K*42
$IIVWT,085.5,R,8.7,N,4.5,M,16.1,K*7F
$IIRSA,-6,A,,V*4C
$IIHSC,,T,177.0,M*6E
$IIMWD,,T,232.5,M,6.1,N,3.1,M*69
$IIVLW,4930.2,N,9.24,N*4E
$IIVTG,177.5,T,,M,5.4,N,10.0,K*43
$IIXTE,A,A,1.66,L,N,A*15
$IIAPB,A,A,1.66,L,N,,,,,BV1,148.5,T,,,A*74
$IIBWC,,,,,,148.5,T,,M,5.89,N,BV1*18
$IIDBT,108.2,f,32.99,M,18.03,F*11
$IIGLL,4734.020,N,00322.300,W,,A,A*44
$IIHDG,180.0,,,,*40
$IIHDM,180.0,M*2B
$IIRMB,A,1.66,L,,BV1,,,,,5.89,148.5,,,A*17
$IIRSA,-5,A,,V*4F
$IIMWV,054.0,R,13.0,N,A*0E
$IIMWV,082.5,T,10.6,N,A*03
$IIVHW,,T,182.0,M,6.22,N,11.52,K*41
$IIVPW,0.81,N,0.42,M*5D
$IIVWR,054.0,R,13.0,N,6.7,M,24.1,K*4C
$IIVWT,082.5,R,10.6,N,5.5,M,19.6,K*49
$IIRSA,-7,A,,V*4D
$IIAPB,A,A,1.66,L,N,,,,,BV1,148.5,T,,,A*74
$IIBWC,,,,,,148.5,T,,M,5.89,N,BV1*18
$IIDBT,110.3,f,33.63,M,18.38,F*15
$IIGLL,4734.020,N,00322.300,W,,A,A*44
$IIHDG,179.5,,,,*43
$IIHDM,179.5,M*28
$IIRMB,A,1.66,L,,BV1,,,,,5.89,148.5,,,A*17
$IIRSA,-2,A,,V*48
$IIMWV,035.5,R,13.9,N,A*05
$IIMWV,057.5,T,9.5,N,A*30
$IIVHW,,T,180.0,M,6.23,N,11.54,K*44
$IIVPW,3.35,N,1.73,M*52
$IIVWR,035.5,R,13.9,N,7.2,M,25.7,K*44
$IIVWT,057.5,R,9.5,N,4.9,M,17.6,K*79
$IIRSA,-4,A,,V*4E
$IIMTW,18.5,C*1F
$IIZTG,,005953,BV1*4A
$IIRSA,-6,A,,V*4C
$IIHSC,,T,177.0,M*6E
$IIMWD,,T,245.5,M,8.5,N,4.4,M*61
$IIVLW,4930.2,N,9.24,N*4E
$IIVTG,174.5,T,,M,5.9,N,10.9,K*44
$IIXTE,A,A,1.66,L,N,A*15
$IIAPB,A,A,1.66,L,N,,,,,BV1,148.5,T,,,A*74
$IIBWC,,,,,,148.5,T,,M,5.89,N,BV1*18
$IIDBT,105.3,f,32.10,M,17.55,F*10
$IIGLL,4734.020,N,00322.300,W,,A,A*44
$IIHDG,181.0,,,,*41
$IIHDM,181.0,M*2A
$IIRMB,A,1.66,L,,BV1,,,,,5.89,148.5,,,A*17
$IIRSA,-2,A,,V*48
$IIMWV,030.5,R,15.4,N,A*0B
$IIMWV,046.0,T,10.8,N,A*00
$IIVHW,,T,180.5,M,5.96,N,11.04,K*49
$IIVPW,4.10,N,2.11,M*55
$IIVWR,030.5,R,15.4,N,7.9,M,28.5,K*4E
$IIVWT,046.5,R,10.7,N,5.5,M,19.8,K*4E
$IIRSA,-2,A,,V*48
$IIAPB,A,A,1.66,L,N,,,,,BV1,148.5,T,,,A*74
$IIBWC,,,,,,148.5,T,,M,5.89,N,BV1*18
$IIDBT,109.0,f,33.23,M,18.16,F*16
$IIGLL,4734.020,N,00322.300,W,,A,A*44
$IIHDG,189.0,,,,*49
$IIHDM,189.0,M*22
$IIRMB,A,1.66,L,,BV1,,,,,5.88,148.5,,,A*16
$IIRSA,-8,A,,V*42
$IIMWV,057.0,R,11.3,N,A*0C
$IIMWV,089.0,T,9.4,N,A*37
$IIVHW,,T,185.0,M,5.97,N,11.06,K*4A
$IIVPW,0.10,N,0.05,M*56
$IIVWR,057.0,R,11.3,N,5.8,M,20.9,K*4E
$IIVWT,089.0,R,9.4,N,4.8,M,17.4,K*7D
$IIRSA,-9,A,,V*43
$IIRSA,-7,A,,V*4D
$IIAPB,A,A,1.66,L,N,,,,,BV1,148.5,T,,,A*74
$IIBWC,,,,,,148.5,T,,M,5.88,N,BV1*19
$IIDBT,109.0,f,33.23,M,18.16,F*16
$IIGLL,4734.010,N,00322.300,W,,A,A*47
$IIHDG,182.0,,,,*42
$IIHDM,182.0,M*29
$IIRMB,A,1.66,L,,BV1,,,,,5.88,148.5,,,A*16
$IIRSA,-9,A,,V*43
$IIMWV,047.0,R,13.6,N,A*0A
$IIMWV,073.0,T,10.4,N,A*0A
$IIVHW,,T,179.0,M,6.22,N,11.52,K*45
$IIVPW,1.82,N,0.94,M*54
$IIVWR,047.0,R,13.6,N,7.0,M,25.2,K*4C
$IIVWT,073.0,R,10.4,N,5.4,M,19.3,K*44
$IIRSA,-7,A,,V*4D
$IIHSC,,T,177.0,M*6E
$IIMWD,,T,247.0,M,9.9,N,5.1,M*6F
$IIVLW,4930.2,N,9.24,N*4E
$IIVTG,186.5,T,,M,6.0,N,11.1,K*4A
$IIXTE,A,A,1.66,L,N,A*15
$IIRSA,-3,A,,V*49
$IIAPB,A,A,1.67,L,N,,,,,BV1,148.5,T,,,A*75
$IIBWC,,,,,,148.5,T,,M,5.88,N,BV1*19
$IIDBT,108.2,f,32.99,M,18.03,F*11
$IIGLL,4734.010,N,00322.300,W,,A,A*47
$IIHDG,179.5,,,,*43
$IIHDM,179.5,M*28
$IIRMB,A,1.67,L,,BV1,,,,,5.88,148.5,,,A*17
$IIRSA,-8,A,,V*42
$IIMWV,045.0,R,12.6,N,A*09
$IIMWV,072.0,T,9.3,N,A*34
$IIVHW,,T,179.5,M,5.97,N,11.06,K*4C
$IIVPW,1.84,N,0.95,M*53
$IIVWR,045.0,R,12.6,N,6.5,M,23.3,K*4C
$IIVWT,058.0,R,8.4,N,4.3,M,15.6,K*7B
$IIRSA,-8,A,,V*42
$IIRSA,-7,A,,V*4D
$IIAPB,A,A,1.67,L,N,,,,,BV1,148.5,T,,,A*75
$IIBWC,,,,,,148.5,T,,M,5.87,N,BV1*16
$IIDBT,108.2,f,32.99,M,18.03,F*11
$IIGLL,4734.010,N,00322.300,W,,A,A*47
$IIHDG,181.0,,,,*41
$IIHDM,181.0,M*2A
$IIRMB,A,1.67,L,,BV1,,,,,5.87,148.5,,,A*18
$IIRSA,-9,A,,V*43
$IIMWV,035.5,R,13.1,N,A*0D
$IIMWV,058.5,T,8.9,N,A*32
$IIVHW,,T,182.0,M,6.02,N,11.15,K*40
$IIVPW,3.15,N,1.62,M*50
$IIVWR,035.5,R,13.1,N,6.8,M,24.3,K*42
$IIVWT,076.5,R,10.1,N,5.2,M,18.7,K*42
$IIRSA,-9,A,,V*43
$IIRSA,-8,A,,V*42
$IIMTW,19.0,C*1B
$IIZTG,,005941,BV1*49
$IIHSC,,T,177.0,M*6E
$IIMWD,,T,231.5,M,8.9,N,4.6,M*6C
$IIVLW,4930.2,N,9.24,N*4E
$IIVTG,173.5,T,,M,5.9,N,10.9,K*43
$IIXTE,A,A,1.67,L,N,A*14
$IIRSA,-7,A,,V*4D
$IIAPB,A,A,1.67,L,N,,,,,BV1,148.5,T,,,A*75
$IIBWC,,,,,,148.5,T,,M,5.87,N,BV1*16
$IIDBT,117.2,f,35.73,M,19.53,F*18
$IIGLL,4734.000,N,00322.300,W,,A,A*46
$IIHDG,182.0,,,,*42
$IIHDM,182.0,M*29
$IIRMB,A,1.67,L,,BV1,,,,,5.87,148.5,,,A*18
$IIRSA,-7,A,,V*4D
$IIMWV,037.5,R,13.5,N,A*0B
$IIMWV,059.0,T,9.5,N,A*3B
$IIVHW,,T,183.5,M,5.77,N,10.69,K*4F
$IIVPW,2.97,N,1.53,M*59
$IIVWR,037.5,R,13.5,N,7.0,M,25.0,K*4F
$IIVWT,059.0,R,9.5,N,4.9,M,17.6,K*72
$IIRSA,-10,A,,V*7B
$IIAPB,A,A,1.67,L,N,,,,,BV1,148.5,T,,,A*75
$IIBWC,,,,,,148.5,T,,M,5.87,N,BV1*16
$IIDBT,113.1,f,34.48,M,18.85,F*1C
$IIGLL,4734.000,N,00322.300,W,,A,A*46
$IIHDG,181.0,,,,*41
$IIHDM,181.0,M*2A
$IIRMB,A,1.67,L,,BV1,,,,,5.87,148.5,,,A*18
$IIRSA,-10,A,,V*7B
$IIMWV,027.5,R,15.0,N,A*09
$IIMWV,043.5,T,10.1,N,A*09
$IIVHW,,T,183.0,M,5.97,N,11.06,K*4C
$IIVPW,4.33,N,2.23,M*55
$IIVWR,056.0,R,12.6,N,6.5,M,23.3,K*4E
$IIVWT,084.0,R,10.5,N,5.4,M,19.4,K*4A
$IIRSA,-10,A,,V*7B
$IIRSA,-6,A,,V*4C
$IIAPB,A,A,1.67,L,N,,,,,BV1,148.5,T,,,A*75
$IIBWC,,,,,,148.5,T,,M,5.87,N,BV1*16
$IIDBT,115.9,f,35.34,M,19.31,F*16
$IIGLL,4733.990,N,00322.300,W,,A,A*41
$IIHDG,178.0,,,,*47
$IIHDM,178.0,M*2C
$IIRMB,A,1.67,L,,BV1,,,,,5.87,148.5,,,A*18
$IIRSA,-8,A,,V*42
$IIMWV,036.0,R,13.7,N,A*0D
$IIMWV,057.5,T,9.5,N,A*30
$IIVHW,,T,180.5,M,5.97,N,11.06,K*4A
$IIVPW,-0.47,N,-0.24,M*57
$IIVWR,068.5,R,10.9,N,5.6,M,20.2,K*49
$IIVWT,101.0,R,10.3,N,5.3,M,19.1,K*42
$IIRSA,-3,A,,V*49
$IIHSC,,T,177.0,M*6E
$IIMWD,,T,279.0,M,10.3,N,5.3,M*52
$IIVLW,4930.2,N,9.24,N*4E
$IIVTG,180.5,T,,M,6.2,N,11.5,K*4A
$IIXTE,A,A,1.67,L,N,A*14
$IIRSA,2,A,,V*65
$IIAPB,A,A,1.67,L,N,,,,,BV1,148.5,T,,,A*75
$IIBWC,,,,,,148.5,T,,M,5.87,N,BV1*16
$IIDBT,110.1,f,33.57,M,18.35,F*1D
$IIGLL,4733.990,N,00322.300,W,,A,A*41
$IIHDG,180.0,,,,*40
$IIHDM,180.0,M*2B
$IIRMB,A,1.67,L,,BV1,,,,,5.86,148.5,,,A*19
$IIRSA,-4,A,,V*4E
$IIMWV,031.0,R,13.5,N,A*08
$IIMWV,051.0,T,8.9,N,A*3E
$IIVHW,,T,182.0,M,5.98,N,11.07,K*43
$IIVPW,3.76,N,1.94,M*5C
$IIVWR,030.5,R,13.3,N,6.9,M,24.6,K*41
$IIVWT,051.0,R,8.6,N,4.4,M,15.9,K*78
$IIRSA,-8,A,,V*42
$IIRSA,-11,A,,V*7A
$IIAPB,A,A,1.67,L,N,,,,,BV1,148.5,T,,,A*75
$IIBWC,,,,,,148.5,T,,M,5.86,N,BV1*17
$IIDBT,111.1,f,33.87,M,18.51,F*13
$IIGLL,4733.990,N,00322.300,W,,A,A*41
$IIHDG,181.0,,,,*41
$IIHDM,181.0,M*2A
$IIRMB,A,1.67,L,,BV1,,,,,5.86,148.5,,,A*19
$IIRSA,-10,A,,V*7B
$IIMWV,040.0,R,12.3,N,A*09
$IIMWV,066.5,T,8.6,N,A*30
$IIVHW,,T,184.0,M,5.96,N,11.04,K*48
$IIVPW,0.73,N,0.38,M*5D
$IIVWR,053.5,R,12.1,N,6.2,M,22.4,K*48
$IIVWT,083.0,R,9.7,N,5.0,M,18.0,K*76
$IIRSA,-10,A,,V*7B
$IIRSA,-2,A,,V*48
$IIMTW,19.0,C*1B
$IIZTG,,005738,BV1*49
$IIHSC,,T,177.0,M*6E
$IIMWD,,T,232.0,M,8.4,N,4.3,M*62
$IIVLW,4930.2,N,9.24,N*4E
$IIVTG,178.5,T,,M,6.1,N,11.3,K*48
$IIXTE,A,A,1.67,L,N,A*14
$IIAPB,A,A,1.67,L,N,,,,,BV1,148.5,T,,,A*75
$IIBWC,,,,,,148.5,T,,M,5.86,N,BV1*17
$IIDBT,110.7,f,33.75,M,18.45,F*1C
$IIGLL,4733.980,N,00322.300,W,,A,A*40
$IIHDG,181.5,,,,*44
$IIHDM,181.5,M*2F
$IIRMB,A,1.67,L,,BV1,,,,,5.86,148.5,,,A*19
$IIRSA,-9,A,,V*43
$IIMWV,048.0,R,12.6,N,A*04
$IIMWV,075.5,T,9.6,N,A*33
$IIVHW,,T,180.0,M,5.98,N,11.07,K*41
$IIVPW,1.50,N,0.77,M*56
$IIVWR,048.0,R,12.6,N,6.5,M,23.3,K*41
$IIVWT,080.0,R,10.0,N,5.2,M,18.5,K*4D
$IIRSA,-3,A,,V*49
$IIAPB,A,A,1.67,L,N,,,,,BV1,148.5,T,,,A*75
$IIBWC,,,,,,148.5,T,,M,5.86,N,BV1*17
$IIDBT,106.1,f,32.35,M,17.68,F*18
$IIGLL,4733.980,N,00322.300,W,,A,A*40
$IIHDG,178.5,,,,*42
$IIHDM,177.0,M*23
$IIRMB,A,1.67,L,,BV1,,,,,5.86,148.5,,,A*19
$IIRSA,-1,A,,V*4B
$IIMWV,019.0,R,12.5,N,A*03
$IIMWV,032.5,T,9.0,N,A*36
$IIVHW,,T,177.0,M,6.47,N,11.98,K*4E
$IIVPW,5.46,N,2.81,M*5E
$IIVWR,019.0,R,14.9,N,7.7,M,27.6,K*4E
$IIVWT,032.5,R,9.0,N,4.6,M,16.7,K*70
$IIRSA,-2,A,,V*48
$IIRSA,-10,A,,V*7B
$IIAPB,A,A,1.67,L,N,,,,,BV1,148.5,T,,,A*75
$IIBWC,,,,,,148.5,T,,M,5.85,N,BV1*14
$IIDBT,106.1,f,32.35,M,17.68,F*18
$IIGLL,4733.980,N,00322.300,W,,A,A*40
$IIHDG,180.5,,,,*45
$IIHDM,174.0,M*20
$IIRMB,A,1.67,L,,BV1,,,,,5.85,148.5,,,A*1A
$IIRSA,-9,A,,V*43
$IIMWV,027.5,R,13.2,N,A*0D
$IIMWV,046.5,T,8.4,N,A*30
$IIVHW,,T,174.0,M,5.96,N,11.04,K*47
$IIVPW,4.10,N,2.11,M*55
$IIVWR,027.5,R,13.2,N,6.8,M,24.4,K*45
$IIVWT,046.5,R,8.4,N,4.3,M,15.6,K*71
$IIRSA,-4,A,,V*4E
$IIHSC,,T,177.0,M*6E
$IIMWD,,T,219.5,M,8.4,N,4.3,M*6E
$IIVLW,4930.2,N,9.24,N*4E
$IIVTG,176.0,T,,M,6.0,N,11.1,K*40
$IIXTE,A,A,1.67,L,N,A*14
$IIAPB,A,A,1.67,L,N,,,,,BV1,148.5,T,,,A*75
$IIBWC,,,,,,148.5,T,,M,5.85,N,BV1*14
$IIDBT,121.1,f,36.92,M,20.18,F*17
$IIGLL,4733.980,N,00322.300,W,,A,A*40
$IIHDG,176.5,,,,*4C
$IIHDM,176.5,M*27
$IIRMB,A,1.67,L,,BV1,,,,,5.85,148.5,,,A*1A
$IIRSA,-4,A,,V*4E
$IIMWV,049.5,R,11.8,N,A*0D
$IIMWV,082.5,T,9.0,N,A*3D
$IIVHW,,T,177.0,M,6.48,N,12.00,K*43
$IIVPW,0.85,N,0.44,M*5F
$IIVWR,049.5,R,11.8,N,6.1,M,21.9,K*44
$IIVWT,082.5,R,9.0,N,4.6,M,16.7,K*7B
$IIRSA,-4,A,,V*4E
$IIAPB,A,A,1.67,L,N,,,,,BV1,148.5,T,,,A*75
$IIBWC,,,,,,148.5,T,,M,5.85,N,BV1*14
$IIDBT,122.5,f,37.35,M,20.41,F*10
$IIGLL,4733.970,N,00322.300,W,,A,A*4F
$IIHDG,177.5,,,,*4D
$IIHDM,177.5,M*26
$IIRMB,A,1.67,L,,BV1,,,,,5.85,148.5,,,A*1A
$IIRSA,-5,A,,V*4F
$IIMWV,035.5,R,13.8,N,A*04
$IIMWV,058.0,T,9.4,N,A*3B
$IIVHW,,T,180.0,M,6.22,N,11.52,K*43
$IIVPW,3.30,N,1.70,M*54
$IIVWR,035.5,R,13.8,N,7.1,M,25.6,K*47
$IIVWT,058.0,R,9.4,N,4.8,M,17.4,K*71
$IIRSA,-10,A,,V*7B
$IIMTW,19.0,C*1B
$IIZTG,,010128,BV1*4A
$IIRSA,-4,A,,V*4E
$IIHSC,,T,177.0,M*6E
$IIMWD,,T,235.5,M,7.6,N,3.9,M*60
$IIVTG,169.5,T,,M,5.7,N,10.6,K*49
$IIXTE,A,A,1.68,L,N,A*1B
$IIAPB,A,A,1.68,L,N,,,,,BV1,148.5,T,,,A*7A
$IIBWC,,,,,,148.5,T,,M,5.84,N,BV1*15
$IIDBT,104.7,f,31.92,M,17.45,F*1D
$IIGLL,4733.970,N,00322.300,W,,A,A*4F
$IIHDG,178.0,,,,*47
$IIHDM,178.0,M*2C
$IIRMB,A,1.68,L,,BV1,,,,,5.84,148.5,,,A*14
$IIRSA,-9,A,,V*43
$IIMWV,030.5,R,13.0,N,A*09
$IIMWV,052.0,T,8.3,N,A*37
$IIVHW,,T,180.0,M,6.05,N,11.20,K*43
$IIVPW,3.16,N,1.63,M*52
$IIVWR,033.0,R,11.9,N,6.1,M,22.0,K*47
$IIVWT,058.5,R,7.6,N,3.9,M,14.1,K*78
$IIRSA,-9,A,,V*43
$IIAPB,A,A,1.68,L,N,,,,,BV1,148.5,T,,,A*7A
$IIBWC,,,,,,148.5,T,,M,5.84,N,BV1*15
$IIDBT,104.7,f,31.92,M,17.45,F*1D
$IIGLL,4733.960,N,00322.300,W,,A,A*4E
$IIHDG,178.5,,,,*42
$IIHDM,178.5,M*29
$IIRMB,A,1.68,L,,BV1,,,,,5.84,148.5,,,A*14
$IIRSA,-4,A,,V*4E
$IIMWV,044.0,R,12.0,N,A*0E
$IIMWV,071.0,T,8.8,N,A*3D
$IIVHW,,T,177.0,M,5.72,N,10.59,K*47
$IIVPW,1.86,N,0.96,M*52
$IIVWR,044.0,R,12.0,N,6.2,M,22.2,K*4C
$IIVWT,071.0,R,8.8,N,4.5,M,16.3,K*7C
$IIRSA,-1,A,,V*4B
$IIRSA,-1,A,,V*4B
$IIAPB,A,A,1.68,L,N,,,,,BV1,148.5,T,,,A*7A
$IIBWC,,,,,,148.5,T,,M,5.84,N,BV1*15
$IIDBT,104.7,f,31.92,M,17.45,F*1D
$IIGLL,4733.960,N,00322.300,W,,A,A*4E
$IIHDG,185.0,,,,*45
$IIHDM,185.0,M*2E
$IIRMB,A,1.68,L,,BV1,,,,,5.84,148.5,,,A*14
$IIRSA,-13,A,,V*78
$IIMWV,045.0,R,11.9,N,A*05
$IIMWV,074.0,T,8.7,N,A*37
$IIVHW,,T,182.0,M,5.96,N,11.04,K*4E
$IIVPW,1.64,N,0.85,M*5C
$IIVWR,045.0,R,11.9,N,6.1,M,22.0,K*46
$IIVWT,074.0,R,8.7,N,4.5,M,16.1,K*74
$IIRSA,-13,A,,V*78
$IIHSC,,T,177.0,M*6E
$IIMWD,,T,256.5,M,8.7,N,4.5,M*60
$IIVTG,177.5,T,,M,5.9,N,10.9,K*47
$IIXTE,A,A,1.68,L,N,A*1B
$IIRSA,-9,A,,V*43
$IIAPB,A,A,1.68,L,N,,,,,BV1,148.5,T,,,A*7A
$IIBWC,,,,,,148.5,T,,M,5.84,N,BV1*15
$IIDBT,100.4,f,30.61,M,16.73,F*13
$IIGLL,4733.960,N,00322.300,W,,A,A*4E
$IIHDG,180.0,,,,*40
$IIHDM,180.0,M*2B
$IIRMB,A,1.68,L,,BV1,,,,,5.83,148.5,,,A*13
$IIRSA,-4,A,,V*4E
$IIMWV,039.5,R,13.6,N,A*06
$IIMWV,062.5,T,9.7,N,A*34
$IIVHW,,T,179.0,M,5.96,N,11.04,K*4A
$IIVPW,2.75,N,1.42,M*55
$IIVWR,039.5,R,13.6,N,7.0,M,25.2,K*40
$IIVWT,062.5,R,9.7,N,5.0,M,18.0,K*7C
$IIRSA,-4,A,,V*4E
$IIRSA,-4,A,,V*4E
$IIAPB,A,A,1.68,L,N,,,,,BV1,148.5,T,,,A*7A
$IIBWC,,,,,,148.5,T,,M,5.83,N,BV1*12
$IIDBT,104.5,f,31.86,M,17.41,F*1E
$IIGLL,4733.960,N,00322.300,W,,A,A*4E
$IIHDG,179.0,,,,*46
$IIHDM,179.5,M*28
$IIRMB,A,1.68,L,,BV1,,,,,5.83,148.5,,,A*13
$IIRSA,-6,A,,V*4C
$IIMWV,051.0,R,12.6,N,A*0C
$IIMWV,080.0,T,9.9,N,A*33
$IIVHW,,T,179.5,M,6.22,N,11.52,K*40
$IIVPW,1.08,N,0.56,M*58
$IIVWR,051.0,R,12.6,N,6.5,M,23.3,K*49
$IIVWT,080.0,R,9.9,N,5.1,M,18.3,K*79
$IIRSA,-4,A,,V*4E
$IIRSA,-5,A,,V*4F
$IIMTW,19.5,C*1E
$IIZTG,,005818,BV1*44
$IIHSC,,T,177.0,M*6E
$IIMWD,,T,237.5,M,9.1,N,4.7,M*62
$IIVTG,171.5,T,,M,6.0,N,11.1,K*42
$IIXTE,A,A,1.68,L,N,A*1B
$IIRSA,-2,A,,V*48
$IIAPB,A,A,1.68,L,N,,,,,BV1,148.5,T,,,A*7A
$IIBWC,,,,,,148.5,T,,M,5.83,N,BV1*12
$IIDBT,105.7,f,32.23,M,17.61,F*13
$IIGLL,4733.950,N,00322.300,W,,A,A*4D
$IIHDG,183.0,,,,*43
$IIHDM,183.0,M*28
$IIRMB,A,1.68,L,,BV1,,,,,5.83,148.5,,,A*13
$IIRSA,-6,A,,V*4C
$IIMWV,034.5,R,12.6,N,A*0A
$IIMWV,057.5,T,8.4,N,A*30
$IIVHW,,T,183.0,M,6.23,N,11.54,K*47
$IIVPW,3.16,N,1.63,M*52
$IIVWR,034.5,R,12.6,N,6.5,M,23.3,K*4F
$IIVWT,059.5,R,8.2,N,4.2,M,15.2,K*7C
$IIRSA,-7,A,,V*4D
$IIAPB,A,A,1.68,L,N,,,,,BV1,148.5,T,,,A*7A
$IIBWC,,,,,,148.5,T,,M,5.83,N,BV1*12
$IIDBT,105.7,f,32.23,M,17.61,F*13
$IIGLL,4733.950,N,00322.300,W,,A,A*4D
$IIHDG,182.0,,,,*42
$IIHDM,182.0,M*29
$IIRMB,A,1.68,L,,BV1,,,,,5.83,148.5,,,A*13
$IIRSA,-6,A,,V*4C
$IIMWV,046.0,R,11.8,N,A*07
$IIMWV,075.5,T,8.7,N,A*33
$IIVHW,,T,181.5,M,5.98,N,11.07,K*45
$IIVPW,1.50,N,0.77,M*56
$IIVWR,046.0,R,11.8,N,6.1,M,21.9,K*4E
$IIVWT,075.5,R,8.7,N,4.5,M,16.1,K*70
$IIRSA,-7,A,,V*4D
$IIRSA,-9,A,,V*43
$IIAPB,A,A,1.68,L,N,,,,,BV1,148.5,T,,,A*7A
$IIBWC,,,,,,148.5,T,,M,5.82,N,BV1*13
$IIDBT,104.8,f,31.95,M,17.46,F*16
$IIGLL,4733.950,N,00322.300,W,,A,A*4D
$IIHDG,183.0,,,,*43
$IIHDM,183.0,M*28
$IIRMB,A,1.68,L,,BV1,,,,,5.82,148.5,,,A*12
$IIRSA,-12,A,,V*79
$IIMWV,051.5,R,11.7,N,A*0B
$IIMWV,083.5,T,9.2,N,A*3E
$IIVHW,,T,181.5,M,6.23,N,11.54,K*40
$IIVPW,0.71,N,0.37,M*50
$IIVWR,051.5,R,11.7,N,6.0,M,21.7,K*4D
$IIVWT,083.5,R,9.2,N,4.7,M,17.0,K*7F
$IIRSA,-8,A,,V*42
$IIHSC,,T,177.0,M*6E
$IIMWD,,T,266.5,M,8.8,N,4.5,M*6C
$IIVLW,4930.3,N,9.34,N*4E
$IIVTG,182.5,T,,M,6.4,N,11.9,K*42
$IIXTE,A,A,1.68,L,N,A*1B
$IIRSA,-3,A,,V*49
$IIAPB,A,A,1.68,L,N,,,,,BV1,148.5,T,,,A*7A
$IIBWC,,,,,,148.5,T,,M,5.82,N,BV1*13
$IIDBT,110.3,f,33.63,M,18.38,F*15
$IIGLL,4733.950,N,00322.300,W,,A,A*4D
$IIHDG,179.0,,,,*46
$IIHDM,179.0,M*2D
$IIRMB,A,1.68,L,,BV1,,,,,5.82,148.5,,,A*12
$IIRSA,-1,A,,V*4B
$IIMWV,034.0,R,13.2,N,A*0A
$IIMWV,053.5,T,9.1,N,A*30
$IIVHW,,T,183.0,M,5.47,N,10.13,K*44
$IIVPW,3.25,N,1.68,M*59
$IIVWR,034.0,R,13.2,N,6.8,M,24.4,K*42
$IIVWT,087.5,R,11.7,N,6.0,M,21.7,K*40
$IIRSA,-8,A,,V*42
$IIRSA,-8,A,,V*42
$IIAPB,A,A,1.68,L,N,,,,,BV1,148.5,T,,,A*7A
$IIBWC,,,,,,148.0,T,,M,5.82,N,BV1*16
$IIDBT,107.9,f,32.90,M,17.98,F*11
$IIGLL,4733.940,N,00322.300,W,,A,A*4C
$IIHDG,181.0,,,,*41
$IIHDM,181.0,M*2A
$IIRMB,A,1.68,L,,BV1,,,,,5.82,148.0,,,A*17
$IIRSA,-9,A,,V*43
$IIMWV,042.5,R,13.7,N,A*0B
$IIMWV,067.0,T,10.0,N,A*0B
$IIVHW,,T,180.0,M,5.97,N,11.06,K*4F
$IIVPW,2.43,N,1.25,M*51
$IIVWR,042.5,R,13.7,N,7.1,M,25.4,K*4A
$IIVWT,052.5,R,6.7,N,3.5,M,12.4,K*7D
$IIRSA,-4,A,,V*4E
$IIRSA,0,A,,V*67
$IIMTW,19.0,C*1B
$IIZTG,,010221,BV1*40
$IIHSC,,T,177.0,M*6E
$IIMWD,,T,250.5,M,9.3,N,4.8,M*6E
$IIVLW,4930.3,N,9.34,N*4E
$IIVTG,178.0,T,,M,5.6,N,10.4,K*4F
$IIXTE,A,A,1.68,L,N,A*1B
$IIAPB,A,A,1.68,L,N,,,,,BV1,148.0,T,,,A*7F
$IIBWC,,,,,,148.0,T,,M,5.82,N,BV1*16
$IIDBT,102.1,f,31.13,M,17.01,F*14
$IIGLL,4733.940,N,00322.300,W,,A,A*4C
$IIHDG,176.5,,,,*4C
$IIHDM,176.5,M*27
$IIRMB,A,1.68,L,,BV1,,,,,5.82,148.0,,,A*17
$IIRSA,-4,A,,V*4E
$IIMWV,042.0,R,11.2,N,A*09
$IIMWV,074.5,T,7.7,N,A*3D
$IIVHW,,T,175.0,M,6.22,N,11.52,K*49
$IIVPW,1.66,N,0.86,M*5D
$IIVWR,042.0,R,11.2,N,5.8,M,20.7,K*45
$IIVWT,074.5,R,7.7,N,4.0,M,14.3,K*7B
$IIRSA,-3,A,,V*49
$IIRSA,-4,A,,V*4E
$IIAPB,A,A,1.68,L,N,,,,,BV1,148.0,T,,,A*7F
$IIBWC,,,,,,148.0,T,,M,5.82,N,BV1*16
$IIDBT,102.1,f,31.13,M,17.01,F*14
$IIGLL,4733.930,N,00322.300,W,,A,A*4B
$IIHDG,177.0,,,,*48
$IIHDM,177.0,M*23
$IIRMB,A,1.68,L,,BV1,,,,,5.81,148.0,,,A*14
$IIRSA,-7,A,,V*4D
$IIMWV,033.5,R,11.9,N,A*01
$IIMWV,060.5,T,7.5,N,A*3A
$IIVHW,,T,177.0,M,6.22,N,11.52,K*4B
$IIVPW,4.32,N,2.23,M*54
$IIVWR,026.0,R,13.0,N,6.7,M,24.1,K*49
$IIVWT,046.0,R,7.9,N,4.1,M,14.6,K*75
$IIRSA,-7,A,,V*4D
$IIRSA,-7,A,,V*4D
$IIAPB,A,A,1.68,L,N,,,,,BV1,148.0,T,,,A*7F
$IIBWC,,,,,,148.0,T,,M,5.81,N,BV1*15
$IIDBT,101.1,f,30.82,M,16.85,F*13
$IIGLL,4733.930,N,00322.300,W,,A,A*4B
$IIHDG,179.5,,,,*43
$IIHDM,177.0,M*23
$IIRMB,A,1.69,L,,BV1,,,,,5.81,148.0,,,A*15
$IIRSA,-3,A,,V*49
$IIMWV,060.0,R,11.2,N,A*09
$IIMWV,092.0,T,9.7,N,A*3E
$IIVHW,,T,177.0,M,5.97,N,11.06,K*47
$IIVPW,4.37,N,2.25,M*57
$IIVWR,024.0,R,12.6,N,6.5,M,23.3,K*4B
$IIVWT,043.0,R,7.5,N,3.9,M,13.9,K*7B
$IIRSA,2,A,,V*65
$IIHSC,,T,177.0,M*6E
$IIMWD,,T,218.0,M,7.5,N,3.9,M*69
$IIVLW,4930.3,N,9.34,N*4E
$IIVTG,173.0,T,,M,5.9,N,10.9,K*46
$IIXTE,A,A,1.69,L,N,A*1A
$IIAPB,A,A,1.69,L,N,,,,,BV1,148.0,T,,,A*7E
$IIBWC,,,,,,148.0,T,,M,5.81,N,BV1*15
$IIDBT,103.3,f,31.49,M,17.21,F*1A
$IIGLL,4733.930,N,00322.300,W,,A,A*4B
$IIHDG,180.0,,,,*40
$IIHDM,180.0,M*2B
$IIRMB,A,1.69,L,,BV1,,,,,5.81,148.0,,,A*15
$IIRSA,-5,A,,V*4F
$IIMWV,048.0,R,12.3,N,A*01
$IIMWV,076.5,T,9.4,N,A*32
$IIVHW,,T,179.0,M,5.99,N,11.09,K*48
$IIVPW,3.48,N,1.79,M*52
$IIVWR,031.5,R,12.5,N,6.4,M,23.1,K*4A
$IIVWT,054.5,R,8.0,N,4.1,M,14.8,K*7B
$IIRSA,-5,A,,V*4F
$IIAPB,A,A,1.69,L,N,,,,,BV1,148.0,T,,,A*7E
$IIBWC,,,,,,148.0,T,,M,5.81,N,BV1*15
$IIDBT,106.7,f,32.53,M,17.78,F*1F
$IIGLL,4733.920,N,00322.290,W,,A,A*42
$IIHDG,182.0,,,,*42
$IIHDM,182.0,M*29
$IIRMB,A,1.69,L,,BV1,,,,,5.81,148.0,,,A*15
$IIRSA,-11,A,,V*7A
$IIMWV,039.0,R,13.0,N,A*05
$IIMWV,076.0,T,10.1,N,A*0A
$IIVHW,,T,182.0,M,5.97,N,11.06,K*4D
$IIVPW,1.04,N,0.54,M*56
$IIVWR,049.5,R,11.6,N,6.0,M,21.5,K*47
$IIVWT,080.0,R,8.9,N,4.6,M,16.5,K*76
$IIRSA,-10,A,,V*7B
$IIMTW,19.0,C*1B
$IIZTG,,010000,BV1*41
$IIRSA,-3,A,,V*49
$IIHSC,,T,177.0,M*6E
$IIMWD,,T,240.5,M,7.3,N,3.8,M*66
$IIVLW,4930.3,N,9.34,N*4E
$IIVTG,185.0,T,,M,6.3,N,11.7,K*49
$IIXTE,A,A,1.69,L,N,A*1A
$IIAPB,A,A,1.69,L,N,,,,,BV1,148.0,T,,,A*7E
$IIBWC,,,,,,148.0,T,,M,5.80,N,BV1*14
$IIDBT,105.9,f,32.29,M,17.65,F*13
$IIGLL,4733.920,N,00322.290,W,,A,A*42
$IIHDG,177.0,,,,*48
$IIHDM,177.0,M*23
$IIRMB,A,1.69,L,,BV1,,,,,5.80,148.0,,,A*14
$IIRSA,-4,A,,V*4E
$IIMWV,044.5,R,12.2,N,A*09
$IIMWV,074.0,T,8.8,N,A*38
$IIVHW,,T,176.0,M,6.22,N,11.52,K*4A
$IIVPW,1.71,N,0.88,M*55
$IIVWR,061.0,R,11.8,N,6.1,M,21.9,K*4B
$IIVWT,092.5,R,10.3,N,5.3,M,19.1,K*4C
$IIRSA,-7,A,,V*4D
$IIAPB,A,A,1.69,L,N,,,,,BV1,148.0,T,,,A*7E
$IIBWC,,,,,,148.0,T,,M,5.80,N,BV1*14
$IIDBT,106.7,f,32.53,M,17.78,F*1F
$IIGLL,4733.920,N,00322.290,W,,A,A*42
$IIHDG,176.0,,,,*49
$IIHDM,176.0,M*22
$IIRMB,A,1.69,L,,BV1,,,,,5.80,148.0,,,A*14
$IIRSA,-4,A,,V*4E
$IIMWV,024.5,R,12.7,N,A*0A
$IIMWV,043.5,T,7.7,N,A*39
$IIVHW,,T,173.0,M,5.96,N,11.04,K*40
$IIVPW,4.32,N,2.23,M*54
$IIVWR,024.5,R,12.7,N,6.5,M,23.5,K*49
$IIVWT,043.5,R,7.7,N,4.0,M,14.3,K*7F
$IIRSA,2,A,,V*65
$IIRSA,-4,A,,V*4E
$IIAPB,A,A,1.69,L,N,,,,,BV1,148.0,T,,,A*7E
$IIBWC,,,,,,148.0,T,,M,5.80,N,BV1*14
$IIDBT,103.8,f,31.65,M,17.30,F*1F
$IIGLL,4733.910,N,00322.290,W,,A,A*41
$IIHDG,177.0,,,,*48
$IIHDM,177.0,M*23
$IIRMB,A,1.69,L,,BV1,,,,,5.80,148.0,,,A*14
$IIRSA,-4,A,,V*4E
$IIMWV,028.0,R,12.6,N,A*02
$IIMWV,047.5,T,8.0,N,A*35
$IIVHW,,T,177.0,M,5.72,N,10.59,K*47
$IIVPW,3.86,N,1.99,M*5E
$IIVWR,028.0,R,12.6,N,6.5,M,23.3,K*47
$IIVWT,047.5,R,8.0,N,4.1,M,14.8,K*79
$IIRSA,-4,A,,V*4E
$IIHSC,,T,177.0,M*6E
$IIMWD,,T,226.5,M,8.0,N,4.1,M*64
$IIVLW,4930.3,N,9.34,N*4E
$IIVTG,162.0,T,,M,6.1,N,11.3,K*46
$IIXTE,A,A,1.69,L,N,A*1A
$IIRSA,-6,A,,V*4C
$IIAPB,A,A,1.69,L,N,,,,,BV1,148.0,T,,,A*7E
$IIBWC,,,,,,148.0,T,,M,5.80,N,BV1*14
$IIDBT,104.9,f,31.98,M,17.48,F*14
$IIGLL,4733.910,N,00322.290,W,,A,A*41
$IIHDG,175.5,,,,*4F
$IIHDM,175.5,M*24
$IIRMB,A,1.69,L,,BV1,,,,,5.79,148.0,,,A*12
$IIRSA,-4,A,,V*4E
$IIMWV,028.5,R,13.5,N,A*05
$IIMWV,046.5,T,8.8,N,A*3C
$IIVHW,,T,175.5,M,5.72,N,10.59,K*40
$IIVPW,3.94,N,2.03,M*5D
$IIVWR,028.5,R,13.5,N,7.0,M,25.0,K*41
$IIVWT,046.5,R,8.8,N,4.5,M,16.3,K*7D
$IIRSA,-4,A,,V*4E
$IIRSA,-8,A,,V*42
$IIAPB,A,A,1.69,L,N,,,,,BV1,148.0,T,,,A*7E
$IIBWC,,,,,,148.0,T,,M,5.79,N,BV1*12
$IIDBT,104.9,f,31.98,M,17.48,F*14
$IIGLL,4733.910,N,00322.290,W,,A,A*41
$IIHDG,182.0,,,,*42
$IIHDM,182.5,M*2C
$IIRMB,A,1.69,L,,BV1,,,,,5.79,148.0,,,A*12
$IIRSA,-9,A,,V*43
$IIMWV,034.5,R,13.6,N,A*0B
$IIMWV,057.0,T,9.1,N,A*31
$IIVHW,,T,182.5,M,6.22,N,11.52,K*44
$IIVPW,3.39,N,1.75,M*58
$IIVWR,034.5,R,13.6,N,7.0,M,25.2,K*4D
$IIVWT,057.0,R,9.1,N,4.7,M,16.9,K*78
$IIRSA,-11,A,,V*7A
$IIRSA,-11,A,,V*7A
$IIMTW,19.0,C*1B
$IIZTG,,005508,BV1*48
$IIHSC,,T,177.0,M*6E
$IIMWD,,T,266.0,M,9.6,N,4.9,M*6A
$IIVLW,4930.3,N,9.34,N*4E
$IIVTG,181.5,T,,M,6.3,N,11.7,K*48
$IIXTE,A,A,1.69,L,N,A*1A
$IIRSA,-1,A,,V*4B
$IIAPB,A,A,1.69,L,N,,,,,BV1,148.0,T,,,A*7E
$IIBWC,,,,,,148.0,T,,M,5.79,N,BV1*12
$IIDBT,106.4,f,32.44,M,17.73,F*11
$IIGLL,4733.900,N,00322.290,W,,A,A*40
$IIHDG,178.0,,,,*47
$IIHDM,178.0,M*2C
$IIRMB,A,1.69,L,,BV1,,,,,5.79,148.0,,,A*12
$IIRSA,-1,A,,V*4B
$IIMWV,031.0,R,13.2,N,A*0F
$IIMWV,070.0,T,10.0,N,A*0D
$IIVHW,,T,178.0,M,5.84,N,10.81,K*44
$IIVPW,1.61,N,0.83,M*5F
$IIVWR,045.5,R,11.8,N,6.1,M,21.9,K*48
$IIVWT,075.5,R,8.6,N,4.4,M,15.9,K*7B
$IIRSA,-4,A,,V*4E
$IIAPB,A,A,1.69,L,N,,,,,BV1,148.0,T,,,A*7E
$IIBWC,,,,,,148.0,T,,M,5.79,N,BV1*12
$IIDBT,106.4,f,32.44,M,17.73,F*11
$IIGLL,4733.900,N,00322.290,W,,A,A*40
$IIHDG,176.0,,,,*49
$IIHDM,176.0,M*22
$IIRMB,A,1.69,L,,BV1,,,,,5.78,148.0,,,A*13
$IIRSA,-6,A,,V*4C
$IIMWV,052.5,R,11.1,N,A*0E
$IIMWV,083.5,T,8.8,N,A*35
$IIVHW,,T,177.0,M,5.73,N,10.61,K*4D
$IIVPW,0.65,N,0.34,M*56
$IIVWR,052.5,R,11.1,N,5.7,M,20.6,K*4C
$IIVWT,083.5,R,8.8,N,4.5,M,16.3,K*74
$IIRSA,-6,A,,V*4C
$IIRSA,-4,A,,V*4E
$IIAPB,A,A,1.69,L,N,,,,,BV1,148.0,T,,,A*7E
$IIBWC,,,,,,148.0,T,,M,5.78,N,BV1*13
$IIDBT,102.1,f,31.13,M,17.01,F*14
$IIGLL,4733.900,N,00322.290,W,,A,A*40
$IIHDG,177.0,,,,*48
$IIHDM,177.0,M*23
$IIRMB,A,1.69,L,,BV1,,,,,5.78,148.0,,,A*13
$IIRSA,-7,A,,V*4D
$IIMWV,042.0,R,12.1,N,A*09
$IIMWV,067.5,T,8.7,N,A*30
$IIVHW,,T,177.5,M,6.28,N,11.63,K*46
$IIVPW,1.99,N,1.03,M*51
$IIVWR,042.0,R,12.1,N,6.2,M,22.4,K*4D
$IIVWT,071.5,R,8.5,N,4.4,M,15.7,K*72
$IIRSA,-7,A,,V*4D
$IIHSC,,T,177.0,M*6E
$IIMWD,,T,223.0,M,6.8,N,3.5,M*61
$IIVLW,4930.3,N,9.34,N*4E
$IIVTG,167.0,T,,M,5.6,N,10.4,K*41
$IIXTE,A,A,1.69,L,N,A*1A
$IIRSA,-6,A,,V*4C
$IIAPB,A,A,1.69,L,N,,,,,BV1,148.0,T,,,A*7E
$IIBWC,,,,,,148.0,T,,M,5.78,N,BV1*13
$IIDBT,102.1,f,31.13,M,17.01,F*14
$IIGLL,4733.900,N,00322.290,W,,A,A*40
$IIHDG,185.0,,,,*45
$IIHDM,185.0,M*2E
$IIRMB,A,1.69,L,,BV1,,,,,5.78,148.0,,,A*13
$IIRSA,-6,A,,V*4C
$IIMWV,056.5,R,13.3,N,A*0A
$IIMWV,081.5,T,11.2,N,A*05
$IIVHW,,T,186.5,M,5.72,N,10.59,K*4C
$IIVPW,0.85,N,0.44,M*5F
$IIVWR,056.5,R,13.3,N,6.9,M,24.6,K*41
$IIVWT,081.5,R,11.2,N,5.8,M,20.7,K*49
$IIRSA,-11,A,,V*7A
$IIRSA,-10,A,,V*7B
$IIAPB,A,A,1.69,L,N,,,,,BV1,148.0,T,,,A*7E
$IIBWC,,,,,,148.0,T,,M,5.78,N,BV1*13
$IIDBT,123.2,f,37.56,M,20.53,F*10
$IIGLL,4733.890,N,00322.290,W,,A,A*48
$IIHDG,186.0,,,,*46
$IIHDM,186.0,M*2D
$IIRMB,A,1.69,L,,BV1,,,,,5.78,148.0,,,A*13
$IIRSA,-15,A,,V*7E
$IIMWV,058.5,R,12.9,N,A*0F
$IIMWV,086.0,T,11.0,N,A*05
$IIVHW,,T,186.0,M,5.97,N,11.06,K*49
$IIVPW,0.42,N,0.22,M*54
$IIVWR,058.5,R,12.9,N,6.6,M,23.9,K*43
$IIVWT,086.0,R,11.0,N,5.7,M,20.4,K*45
$IIRSA,-14,A,,V*7F
$IIRSA,-7,A,,V*4D
$IIMTW,19.0,C*1B
$IIZTG,,010413,BV1*47
$IIHSC,,T,177.0,M*6E
$IIMWD,,T,232.0,M,9.1,N,4.7,M*62
$IIVLW,4930.3,N,9.34,N*4E
$IIVTG,176.0,T,,M,5.4,N,10.0,K*47
$IIXTE,A,A,1.69,L,N,A*1A
$IIAPB,A,A,1.69,L,N,,,,,BV1,148.0,T,,,A*7E
$IIBWC,,,,,,148.0,T,,M,5.78,N,BV1*13
$IIDBT,108.3,f,33.02,M,18.05,F*15
$IIGLL,4733.890,N,00322.290,W,,A,A*48
$IIHDG,179.5,,,,*43
$IIHDM,179.5,M*28
$IIRMB,A,1.70,L,,BV1,,,,,5.77,148.0,,,A*14
$IIRSA,-6,A,,V*4C
$IIMWV,033.0,R,12.7,N,A*09
$IIMWV,056.0,T,8.3,N,A*33
$IIVHW,,T,180.0,M,5.97,N,11.06,K*4F
$IIVPW,3.34,N,1.72,M*52
$IIVWR,033.0,R,12.7,N,6.5,M,23.5,K*4A
$IIVWT,057.5,R,8.2,N,4.2,M,15.2,K*72
$IIRSA,-7,A,,V*4D
$IIAPB,A,A,1.70,L,N,,,,,BV1,148.0,T,,,A*76
$IIBWC,,,,,,148.0,T,,M,5.77,N,BV1*1C
$IIDBT,108.3,f,33.02,M,18.05,F*15
$IIGLL,4733.890,N,00322.290,W,,A,A*48
$IIHDG,179.5,,,,*43
$IIHDM,181.0,M*2A
$IIRMB,A,1.70,L,,BV1,,,,,5.77,148.0,,,A*14
$IIRSA,-5,A,,V*4F
$IIMWV,027.0,R,13.3,N,A*09
$IIMWV,045.5,T,8.4,N,A*33
$IIVHW,,T,181.0,M,5.97,N,11.06,K*4E
$IIVPW,4.18,N,2.15,M*59
$IIVWR,027.0,R,13.3,N,6.9,M,24.6,K*42
$IIVWT,045.5,R,8.4,N,4.3,M,15.6,K*72
$IIRSA,-7,A,,V*4D
$IIRSA,-8,A,,V*42
$IIAPB,A,A,1.70,L,N,,,,,BV1,148.0,T,,,A*76
$IIBWC,,,,,,148.0,T,,M,5.77,N,BV1*1C
$IIDBT,108.3,f,33.02,M,18.05,F*15
$IIGLL,4733.880,N,00322.290,W,,A,A*49
$IIHDG,181.5,,,,*44
$IIHDM,183.0,M*28
$IIRMB,A,1.70,L,,BV1,,,,,5.77,148.0,,,A*14
$IIRSA,-6,A,,V*4C
$IIMWV,030.0,R,13.5,N,A*09
$IIMWV,049.5,T,8.8,N,A*33
$IIVHW,,T,183.0,M,6.22,N,11.52,K*40
$IIVPW,3.91,N,2.02,M*59
$IIVWR,030.0,R,13.5,N,7.0,M,25.0,K*4D
$IIVWT,059.0,R,9.3,N,4.8,M,17.2,K*71
$IIRSA,-8,A,,V*42
$IIHSC,,T,177.0,M*6E
$IIMWD,,T,244.0,M,9.3,N,4.8,M*6E
$IIVLW,4930.3,N,9.34,N*4E
$IIVTG,178.5,T,,M,6.2,N,11.5,K*4D
$IIXTE,A,A,1.70,L,N,A*12
$IIAPB,A,A,1.70,L,N,,,,,BV1,148.0,T,,,A*76
$IIBWC,,,,,,148.0,T,,M,5.77,N,BV1*1C
$IIDBT,113.2,f,34.51,M,18.86,F*14
$IIGLL,4733.880,N,00322.290,W,,A,A*49
$IIHDG,186.5,,,,*43
$IIHDM,186.5,M*28
$IIRMB,A,1.70,L,,BV1,,,,,5.76,148.0,,,A*15
$IIRSA,-4,A,,V*4E
$IIMWV,052.0,R,13.3,N,A*0B
$IIMWV,078.0,T,10.7,N,A*02
$IIVHW,,T,183.0,M,5.96,N,11.04,K*4F
$IIVPW,1.24,N,0.64,M*57
$IIVWR,052.0,R,13.3,N,6.9,M,24.6,K*40
$IIVWT,063.5,R,9.5,N,4.9,M,17.6,K*7E
$IIRSA,-5,A,,V*4F
$IIAPB,A,A,1.70,L,N,,,,,BV1,148.0,T,,,A*76
$IIBWC,,,,,,148.0,T,,M,5.76,N,BV1*1D
$IIDBT,111.9,f,34.12,M,18.65,F*17
$IIGLL,4733.870,N,00322.290,W,,A,A*46
$IIHDG,186.5,,,,*43
$IIHDM,186.5,M*28
$IIRMB,A,1.70,L,,BV1,,,,,5.76,148.0,,,A*15
$IIRSA,-10,A,,V*7B
$IIMWV,040.5,R,12.7,N,A*08
$IIMWV,066.0,T,9.0,N,A*32
$IIVHW,,T,184.0,M,5.96,N,11.04,K*48
$IIVPW,2.42,N,1.25,M*50
$IIVWR,030.0,R,14.0,N,7.2,M,25.9,K*44
$IIVWT,048.5,R,9.3,N,4.8,M,17.2,K*74
$IIRSA,-9,A,,V*43
$IIMTW,19.0,C*1B
$IIZTG,,005544,BV1*40
$IIRSA,-5,A,,V*4F
$IIHSC,,T,177.0,M*6E
$IIMWD,,T,241.5,M,8.1,N,4.2,M*67
$IIVTG,179.5,T,,M,6.2,N,11.5,K*4C
$IIXTE,A,A,1.70,L,N,A*12
$IIAPB,A,A,1.70,L,N,,,,,BV1,148.0,T,,,A*76
$IIBWC,,,,,,148.0,T,,M,5.76,N,BV1*1D
$IIDBT,118.5,f,36.13,M,19.75,F*11
$IIGLL,4733.870,N,00322.290,W,,A,A*46
$IIHDG,185.0,,,,*45
$IIHDM,185.0,M*2E
$IIRMB,A,1.70,L,,BV1,,,,,5.76,148.0,,,A*15
$IIRSA,-8,A,,V*42
$IIMWV,047.5,R,13.8,N,A*01
$IIMWV,072.0,T,10.6,N,A*09
$IIVHW,,T,186.0,M,5.97,N,11.06,K*49
$IIVPW,1.84,N,0.95,M*53
$IIVWR,047.5,R,13.8,N,7.1,M,25.6,K*42
$IIVWT,072.0,R,10.6,N,5.5,M,19.6,K*43
$IIRSA,-4,A,,V*4E
$IIAPB,A,A,1.70,L,N,,,,,BV1,148.0,T,,,A*76
$IIBWC,,,,,,148.0,T,,M,5.76,N,BV1*1D
$IIDBT,112.5,f,34.30,M,18.75,F*19
$IIGLL,4733.870,N,00322.290,W,,A,A*46
$IIHDG,182.0,,,,*42
$IIHDM,182.0,M*29
$IIRMB,A,1.70,L,,BV1,,,,,5.76,148.0,,,A*15
$IIRSA,-5,A,,V*4F
$IIMWV,034.5,R,14.3,N,A*09
$IIMWV,056.5,T,9.7,N,A*33
$IIVHW,,T,181.0,M,6.47,N,11.98,K*47
$IIVPW,2.58,N,1.33,M*5C
$IIVWR,040.5,R,13.6,N,7.0,M,25.2,K*4E
$IIVWT,063.5,R,9.8,N,5.1,M,18.1,K*72
$IIRSA,-5,A,,V*4F
$IIRSA,-2,A,,V*48
$IIAPB,A,A,1.70,L,N,,,,,BV1,148.0,T,,,A*76
$IIBWC,,,,,,148.0,T,,M,5.76,N,BV1*1D
$IIDBT,110.3,f,33.63,M,18.38,F*15
$IIGLL,4733.860,N,00322.290,W,,A,A*47
